1.387,$GPGGA,132928.00,4811.844861,N,00300.870411,W,5,07,2.6,172.260,M,0.000,M,1.0,0001*67
1.427,$GPVTG,131.9,T,,,1.94,N,3.59,K,D*4C
1.467,$GPZDA,132928.00,19,10,2016,+00,00*42
1.507,$GPRMC,132928.13,A,4811.84486,N,00300.87041,W,1.9,131.9,191016,,,D*67
1.547,$GPGST,132928.00,,,,,1.66,3.28,1.71*6B
2.386,$GPGGA,132929.00,4811.844539,N,00300.869814,W,5,07,2.6,172.295,M,0.000,M,1.0,0001*6D
2.389,$GPVTG,132.3,T,,,1.94,N,3.59,K,D*45
2.427,$GPZDA,132929.00,19,10,2016,+00,00*43
2.467,$GPRMC,132929.13,A,4811.84454,N,00300.86981,W,1.9,132.3,191016,,,D*64
2.507,$GPGST,132929.00,,,,,1.66,3.27,1.70*64
3.386,$GPGGA,132930.00,4811.844236,N,00300.868924,W,5,07,2.6,172.385,M,0.000,M,1.0,0001*6E
3.389,$GPVTG,132.7,T,,,1.94,N,3.59,K,D*41
3.427,$GPZDA,132930.00,19,10,2016,+00,00*4B
3.467,$GPRMC,132930.13,A,4811.84424,N,00300.86892,W,1.9,132.7,191016,,,D*6C
3.507,$GPGST,132930.00,,,,,1.65,3.27,1.70*6F
4.386,$GPGGA,132931.00,4811.843706,N,00300.868881,W,5,07,2.6,172.629,M,0.000,M,1.0,0001*63
4.389,$GPVTG,133.0,T,,,1.93,N,3.58,K,D*41
4.427,$GPZDA,132931.00,19,10,2016,+00,00*4A
4.467,$GPRMC,132931.13,A,4811.84371,N,00300.86888,W,1.9,133.0,191016,,,D*67
4.507,$GPGST,132931.00,,,,,1.65,3.26,1.70*6F
5.386,$GPGGA,132932.00,4811.843534,N,00300.868534,W,5,07,2.6,172.487,M,0.000,M,1.0,0001*66
5.389,$GPVTG,133.3,T,,,1.93,N,3.58,K,D*42
5.427,$GPZDA,132932.00,19,10,2016,+00,00*49
5.467,$GPRMC,132932.13,A,4811.84353,N,00300.86853,W,1.9,133.3,191016,,,D*61
5.507,$GPGST,132932.00,,,,,1.64,3.26,1.69*65
6.386,$GPGGA,132933.00,4811.843037,N,00300.869238,W,5,07,2.6,172.212,M,0.000,M,1.0,0001*61
6.390,$GPVTG,133.8,T,,,1.93,N,3.57,K,D*46
6.427,$GPZDA,132933.00,19,10,2016,+00,00*48
6.467,$GPRMC,132933.13,A,4811.84304,N,00300.86924,W,1.9,133.8,191016,,,D*68
6.507,$GPGST,132933.00,,,,,1.64,3.25,1.69*67
7.386,$GPGGA,132934.00,4811.842491,N,00300.866976,W,5,07,2.6,172.470,M,0.000,M,1.0,0001*63
7.390,$GPVTG,134.3,T,,,1.92,N,3.55,K,D*49
7.426,$GPZDA,132934.00,19,10,2016,+00,00*4F
7.467,$GPRMC,132934.13,A,4811.84249,N,00300.86698,W,1.9,134.3,191016,,,D*63
7.507,$GPGST,132934.00,,,,,1.64,3.24,1.69*61
8.386,$GPGGA,132935.00,4811.842171,N,00300.866242,W,5,07,2.6,173.143,M,0.000,M,1.0,0001*61
8.390,$GPVTG,134.8,T,,,1.91,N,3.54,K,D*40
8.427,$GPZDA,132935.00,19,10,2016,+00,00*4E
8.467,$GPRMC,132935.13,A,4811.84217,N,00300.86624,W,1.9,134.8,191016,,,D*65
8.507,$GPGST,132935.00,,,,,1.63,3.24,1.68*66
9.387,$GPGGA,132936.00,4811.841999,N,00300.867631,W,5,07,2.6,172.308,M,0.000,M,1.0,0001*62
9.390,$GPVTG,135.5,T,,,1.90,N,3.53,K,D*4A
9.427,$GPZDA,132936.00,19,10,2016,+00,00*4D
9.468,$GPRMC,132936.13,A,4811.84200,N,00300.86763,W,1.9,135.5,191016,,,D*6E
9.508,$GPGST,132936.00,,,,,1.63,3.23,1.68*62
10.387,$GPGGA,132937.00,4811.841415,N,00300.867026,W,5,07,2.6,172.211,M,0.000,M,1.0,0001*63
10.390,$GPVTG,136.4,T,,,1.90,N,3.52,K,D*49
10.428,$GPZDA,132937.00,19,10,2016,+00,00*4C
10.468,$GPRMC,132937.13,A,4811.84142,N,00300.86703,W,1.9,136.4,191016,,,D*6E
10.508,$GPGST,132937.00,,,,,1.62,3.23,1.68*62
11.387,$GPGGA,132938.00,4811.840936,N,00300.866020,W,5,07,2.6,172.181,M,0.000,M,1.0,0001*6C
11.390,$GPVTG,137.4,T,,,1.90,N,3.51,K,D*4B
11.427,$GPZDA,132938.00,19,10,2016,+00,00*43
11.468,$GPRMC,132938.13,A,4811.84094,N,00300.86602,W,1.9,137.4,191016,,,D*6A
11.508,$GPGST,132938.00,,,,,1.62,3.22,1.67*63
12.387,$GPGGA,132939.00,4811.840674,N,00300.866043,W,5,07,2.6,172.187,M,0.000,M,1.0,0001*67
12.390,$GPVTG,138.5,T,,,1.90,N,3.51,K,D*45
12.427,$GPZDA,132939.00,19,10,2016,+00,00*42
12.468,$GPRMC,132939.13,A,4811.84067,N,00300.86604,W,1.9,138.5,191016,,,D*6F
12.508,$GPGST,132939.00,,,,,1.61,3.21,1.67*62
13.387,$GPGGA,132940.00,4811.840178,N,00300.866282,W,5,07,2.6,172.176,M,0.000,M,1.0,0001*63
13.390,$GPVTG,139.8,T,,,1.90,N,3.51,K,D*49
13.427,$GPZDA,132940.00,19,10,2016,+00,00*4C
13.468,$GPRMC,132940.13,A,4811.84018,N,00300.86628,W,1.9,139.8,191016,,,D*6B
13.508,$GPGST,132940.00,,,,,1.61,3.21,1.66*6D
14.387,$GPGGA,132941.00,4811.839841,N,00300.864334,W,5,07,2.6,172.855,M,0.000,M,1.0,0001*69
14.390,$GPVTG,141.1,T,,,1.90,N,3.51,K,D*4F
14.427,$GPZDA,132941.00,19,10,2016,+00,00*4D
14.467,$GPRMC,132941.13,A,4811.83984,N,00300.86433,W,1.9,141.1,191016,,,D*6F
14.508,$GPGST,132941.00,,,,,1.61,3.20,1.66*6D
15.387,$GPGGA,132942.00,4811.839025,N,00300.863445,W,5,07,2.6,173.038,M,0.000,M,1.0,0001*64
15.390,$GPVTG,142.5,T,,,1.90,N,3.53,K,D*4A
15.427,$GPZDA,132942.00,19,10,2016,+00,00*4E
15.467,$GPRMC,132942.13,A,4811.83902,N,00300.86344,W,1.9,142.5,191016,,,D*62
15.508,$GPGST,132942.00,,,,,1.60,3.20,1.65*6C
16.387,$GPGGA,132943.00,4811.838597,N,00300.862807,W,5,07,2.6,172.493,M,0.000,M,1.0,0001*67
16.390,$GPVTG,143.6,T,,,1.91,N,3.54,K,D*4E
16.427,$GPZDA,132943.00,19,10,2016,+00,00*4F
16.467,$GPRMC,132943.13,A,4811.83860,N,00300.86281,W,1.9,143.6,191016,,,D*6C
16.507,$GPGST,132943.00,,,,,1.60,3.19,1.65*67
17.387,$GPGGA,132944.00,4811.838220,N,00300.862287,W,5,07,2.6,172.779,M,0.000,M,1.0,0001*6E
17.390,$GPVTG,144.7,T,,,1.92,N,3.55,K,D*4A
17.427,$GPZDA,132944.00,19,10,2016,+00,00*48
17.467,$GPRMC,132944.13,A,4811.83822,N,00300.86229,W,1.9,144.7,191016,,,D*69
17.507,$GPGST,132944.00,,,,,1.59,3.19,1.65*6A
18.387,$GPGGA,132945.00,4811.837488,N,00300.862403,W,5,07,2.6,172.861,M,0.000,M,1.0,0001*68
18.390,$GPVTG,145.9,T,,,1.93,N,3.57,K,D*46
18.427,$GPZDA,132945.00,19,10,2016,+00,00*49
18.467,$GPRMC,132945.13,A,4811.83749,N,00300.86240,W,1.9,145.9,191016,,,D*6A
18.507,$GPGST,132945.00,,,,,1.59,3.18,1.64*6B
19.387,$GPGGA,132946.00,4811.837237,N,00300.862723,W,5,07,2.6,172.300,M,0.000,M,1.0,0001*64
19.390,$GPVTG,146.8,T,,,1.93,N,3.58,K,D*4B
19.427,$GPZDA,132946.00,19,10,2016,+00,00*4A
19.467,$GPRMC,132946.13,A,4811.83724,N,00300.86272,W,1.9,146.8,191016,,,D*61
19.507,$GPGST,132946.00,,,,,1.59,3.17,1.64*67
20.387,$GPGGA,132947.00,4811.836712,N,00300.861344,W,5,07,2.6,172.647,M,0.000,M,1.0,0001*66
20.390,$GPVTG,147.6,T,,,1.94,N,3.59,K,D*42
20.427,$GPZDA,132947.00,19,10,2016,+00,00*4B
20.467,$GPRMC,132947.13,A,4811.83671,N,00300.86134,W,1.9,147.6,191016,,,D*6F
20.508,$GPGST,132947.00,,,,,1.58,3.17,1.63*60
21.387,$GPGGA,132948.00,4811.836284,N,00300.861252,W,5,07,2.6,172.436,M,0.000,M,1.0,0001*61
21.390,$GPVTG,148.2,T,,,1.94,N,3.59,K,D*49
21.427,$GPZDA,132948.00,19,10,2016,+00,00*44
21.467,$GPRMC,132948.13,A,4811.83628,N,00300.86125,W,1.9,148.2,191016,,,D*67
21.507,$GPGST,132948.00,,,,,1.58,3.16,1.63*6E
22.387,$GPGGA,132949.00,4811.835945,N,00300.862001,W,5,07,2.6,171.996,M,0.000,M,1.0,0001*66
22.390,$GPVTG,148.9,T,,,1.94,N,3.59,K,D*42
22.427,$GPZDA,132949.00,19,10,2016,+00,00*45
22.467,$GPRMC,132949.13,A,4811.83595,N,00300.86200,W,1.9,148.9,191016,,,D*6C
22.507,$GPGST,132949.00,,,,,1.57,3.16,1.62*61
23.387,$GPGGA,132950.00,4811.835532,N,00300.862545,W,5,07,2.6,172.036,M,0.000,M,1.0,0001*67
23.390,$GPVTG,149.5,T,,,1.94,N,3.59,K,D*4F
23.427,$GPZDA,132950.00,19,10,2016,+00,00*4D
23.467,$GPRMC,132950.13,A,4811.83553,N,00300.86255,W,1.9,149.5,191016,,,D*63
23.507,$GPGST,132950.00,,,,,1.57,3.15,1.62*6A
24.387,$GPGGA,132951.00,4811.834907,N,00300.860992,W,5,07,2.6,172.303,M,0.000,M,1.0,0001*6C
24.391,$GPVTG,149.9,T,,,1.93,N,3.57,K,D*4A
24.427,$GPZDA,132951.00,19,10,2016,+00,00*4C
24.467,$GPRMC,132951.13,A,4811.83491,N,00300.86099,W,1.9,149.9,191016,,,D*63
24.507,$GPGST,132951.00,,,,,1.57,3.15,1.61*68
25.387,$GPGGA,132952.00,4811.834449,N,00300.859771,W,5,07,2.6,172.208,M,0.000,M,1.0,0001*6B
25.391,$GPVTG,150.6,T,,,1.92,N,3.56,K,D*4D
25.427,$GPZDA,132952.00,19,10,2016,+00,00*4F
25.467,$GPRMC,132952.13,A,4811.83445,N,00300.85977,W,1.9,150.6,191016,,,D*64
25.507,$GPGST,132952.00,,,,,1.56,3.14,1.61*6B
26.387,$GPGGA,132953.00,4811.833786,N,00300.858764,W,5,07,2.6,172.513,M,0.000,M,1.0,0001*65
26.391,$GPVTG,151.3,T,,,1.91,N,3.54,K,D*48
26.427,$GPZDA,132953.00,19,10,2016,+00,00*4E
26.467,$GPRMC,132953.13,A,4811.83379,N,00300.85876,W,1.9,151.3,191016,,,D*69
26.507,$GPGST,132953.00,,,,,1.56,3.14,1.60*6B
27.387,$GPGGA,132954.00,4811.833351,N,00300.859912,W,5,07,2.6,172.112,M,0.000,M,1.0,0001*67
27.390,$GPVTG,152.2,T,,,1.90,N,3.52,K,D*4D
27.427,$GPZDA,132954.00,19,10,2016,+00,00*49
27.467,$GPRMC,132954.13,A,4811.83335,N,00300.85991,W,1.9,152.2,191016,,,D*6C
27.507,$GPGST,132954.00,,,,,1.55,3.13,1.60*68
28.387,$GPGGA,132955.00,4811.832693,N,00300.858668,W,5,07,2.6,171.750,M,0.000,M,1.0,0001*6C
28.390,$GPVTG,153.4,T,,,1.89,N,3.50,K,D*40
28.428,$GPZDA,132955.00,19,10,2016,+00,00*48
28.468,$GPRMC,132955.13,A,4811.83269,N,00300.85867,W,1.9,153.4,191016,,,D*6A
28.508,$GPGST,132955.00,,,,,1.55,3.13,1.60*69
29.387,$GPGGA,132956.00,4811.832262,N,00300.858367,W,5,06,2.7,171.860,M,0.000,M,1.0,0001*63
29.390,$GPVTG,154.6,T,,,1.88,N,3.48,K,D*4D
29.428,$GPZDA,132956.00,19,10,2016,+00,00*4B
29.468,$GPRMC,132956.13,A,4811.83226,N,00300.85837,W,1.9,154.6,191016,,,D*62
29.508,$GPGST,132956.00,,,,,1.54,3.11,1.59*63
30.387,$GPGGA,132957.00,4811.831686,N,00300.858189,W,5,06,2.7,172.351,M,0.000,M,1.0,0001*67
30.390,$GPVTG,156.1,T,,,1.87,N,3.46,K,D*49
30.428,$GPZDA,132957.00,19,10,2016,+00,00*4A
30.468,$GPRMC,132957.13,A,4811.83169,N,00300.85819,W,1.9,156.1,191016,,,D*62
30.508,$GPGST,132957.00,,,,,1.53,3.10,1.59*64
31.387,$GPGGA,132958.00,4811.831219,N,00300.858004,W,5,06,2.7,172.272,M,0.000,M,1.0,0001*6E
31.390,$GPVTG,157.7,T,,,1.86,N,3.44,K,D*4D
31.428,$GPZDA,132958.00,19,10,2016,+00,00*45
31.468,$GPRMC,132958.13,A,4811.83122,N,00300.85800,W,1.9,157.7,191016,,,D*6D
31.508,$GPGST,132958.00,,,,,1.53,3.09,1.58*62
32.387,$GPGGA,132959.00,4811.830777,N,00300.857858,W,5,06,2.7,172.067,M,0.000,M,1.0,0001*6B
32.390,$GPVTG,159.6,T,,,1.85,N,3.43,K,D*46
32.428,$GPZDA,132959.00,19,10,2016,+00,00*44
32.468,$GPRMC,132959.13,A,4811.83078,N,00300.85786,W,1.9,159.6,191016,,,D*6C
32.508,$GPGST,132959.00,,,,,1.52,3.08,1.58*63
33.387,$GPGGA,133000.00,4811.830283,N,00300.857788,W,5,06,2.7,171.712,M,0.000,M,1.0,0001*65
33.390,$GPVTG,161.5,T,,,1.85,N,3.42,K,D*4F
33.428,$GPZDA,133000.00,19,10,2016,+00,00*40
33.468,$GPRMC,133000.13,A,4811.83028,N,00300.85779,W,1.8,161.5,191016,,,D*64
33.508,$GPGST,133000.00,,,,,1.51,3.08,1.57*6B
34.387,$GPGGA,133001.00,4811.829727,N,00300.857694,W,5,06,2.7,172.126,M,0.000,M,1.0,0001*69
34.390,$GPVTG,163.5,T,,,1.85,N,3.42,K,D*4D
34.428,$GPZDA,133001.00,19,10,2016,+00,00*41
34.468,$GPRMC,133001.13,A,4811.82973,N,00300.85769,W,1.8,163.5,191016,,,D*60
34.508,$GPGST,133001.00,,,,,1.51,3.07,1.57*65
35.387,$GPGGA,133002.00,4811.829272,N,00300.857602,W,5,06,2.7,172.119,M,0.000,M,1.0,0001*6C
35.390,$GPVTG,165.6,T,,,1.85,N,3.42,K,D*48
35.428,$GPZDA,133002.00,19,10,2016,+00,00*42
35.468,$GPRMC,133002.13,A,4811.82927,N,00300.85760,W,1.8,165.6,191016,,,D*6E
35.508,$GPGST,133002.00,,,,,1.50,3.07,1.56*66
36.387,$GPGGA,133003.00,4811.828571,N,00300.857667,W,5,06,2.7,172.561,M,0.000,M,1.0,0001*60
36.390,$GPVTG,167.4,T,,,1.84,N,3.42,K,D*49
36.427,$GPZDA,133003.00,19,10,2016,+00,00*43
36.468,$GPRMC,133003.13,A,4811.82857,N,00300.85767,W,1.8,167.4,191016,,,D*6E
36.508,$GPGST,133003.00,,,,,1.49,3.06,1.56*6E
37.387,$GPGGA,133004.00,4811.828197,N,00300.857616,W,5,06,2.7,172.308,M,0.000,M,1.0,0001*64
37.390,$GPVTG,169.3,T,,,1.85,N,3.42,K,D*41
37.427,$GPZDA,133004.00,19,10,2016,+00,00*44
37.468,$GPRMC,133004.13,A,4811.82820,N,00300.85762,W,1.8,169.3,191016,,,D*65
37.508,$GPGST,133004.00,,,,,1.49,3.05,1.55*69
38.387,$GPGGA,133005.00,4811.827657,N,00300.857676,W,5,06,2.7,172.189,M,0.000,M,1.0,0001*6C
38.390,$GPVTG,171.1,T,,,1.85,N,3.42,K,D*4A
38.427,$GPZDA,133005.00,19,10,2016,+00,00*45
38.468,$GPRMC,133005.13,A,4811.82766,N,00300.85768,W,1.8,171.1,191016,,,D*68
38.508,$GPGST,133005.00,,,,,1.48,3.04,1.55*68
39.387,$GPGGA,133006.00,4811.827118,N,00300.857727,W,5,06,2.7,172.372,M,0.000,M,1.0,0001*60
39.390,$GPVTG,172.7,T,,,1.85,N,3.42,K,D*4F
39.427,$GPZDA,133006.00,19,10,2016,+00,00*46
39.467,$GPRMC,133006.13,A,4811.82712,N,00300.85773,W,1.8,172.7,191016,,,D*67
39.508,$GPGST,133006.00,,,,,1.47,3.03,1.54*62
40.387,$GPGGA,133007.00,4811.826626,N,00300.857833,W,5,06,2.7,171.859,M,0.000,M,1.0,0001*61
40.390,$GPVTG,174.5,T,,,1.85,N,3.43,K,D*4A
40.427,$GPZDA,133007.00,19,10,2016,+00,00*47
40.468,$GPRMC,133007.13,A,4811.82663,N,00300.85783,W,1.9,174.5,191016,,,D*6B
40.508,$GPGST,133007.00,,,,,1.46,3.02,1.54*63
41.387,$GPGGA,133008.00,4811.826096,N,00300.857907,W,5,06,2.7,171.906,M,0.000,M,1.0,0001*6E
41.390,$GPVTG,176.1,T,,,1.86,N,3.44,K,D*48
41.427,$GPZDA,133008.00,19,10,2016,+00,00*48
41.467,$GPRMC,133008.13,A,4811.82610,N,00300.85791,W,1.9,176.1,191016,,,D*65
41.507,$GPGST,133008.00,,,,,1.46,3.01,1.53*68
42.387,$GPGGA,133009.00,4811.825380,N,00300.858076,W,5,06,2.7,172.408,M,0.000,M,1.0,0001*68
42.391,$GPVTG,177.6,T,,,1.86,N,3.45,K,D*4F
42.427,$GPZDA,133009.00,19,10,2016,+00,00*49
42.467,$GPRMC,133009.13,A,4811.82538,N,00300.85808,W,1.9,177.6,191016,,,D*64
42.508,$GPGST,133009.00,,,,,1.45,3.00,1.53*6B
43.387,$GPGGA,133010.00,4811.824881,N,00300.858144,W,5,06,2.7,172.434,M,0.000,M,1.0,0001*64
43.391,$GPVTG,179.0,T,,,1.87,N,3.46,K,D*45
43.427,$GPZDA,133010.00,19,10,2016,+00,00*41
43.467,$GPRMC,133010.13,A,4811.82488,N,00300.85814,W,1.9,179.0,191016,,,D*63
43.508,$GPGST,133010.00,,,,,1.44,2.99,1.53*63
44.387,$GPGGA,133011.00,4811.824316,N,00300.858310,W,5,06,2.7,172.594,M,0.000,M,1.0,0001*68
44.391,$GPVTG,180.2,T,,,1.87,N,3.47,K,D*40
44.427,$GPZDA,133011.00,19,10,2016,+00,00*40
44.467,$GPRMC,133011.13,A,4811.82432,N,00300.85831,W,1.9,180.2,191016,,,D*60
44.507,$GPGST,133011.00,,,,,1.44,2.98,1.52*62
45.387,$GPGGA,133012.00,4811.823896,N,00300.858380,W,5,06,2.7,172.246,M,0.000,M,1.0,0001*6E
45.391,$GPVTG,181.4,T,,,1.88,N,3.48,K,D*47
45.428,$GPZDA,133012.00,19,10,2016,+00,00*43
45.468,$GPRMC,133012.13,A,4811.82390,N,00300.85838,W,1.9,181.4,191016,,,D*62
45.508,$GPGST,133012.00,,,,,1.43,2.97,1.52*69
46.388,$GPGGA,133013.00,4811.823217,N,00300.858577,W,5,06,2.7,172.592,M,0.000,M,1.0,0001*6C
46.391,$GPVTG,182.4,T,,,1.88,N,3.48,K,D*44
46.428,$GPZDA,133013.00,19,10,2016,+00,00*42
46.468,$GPRMC,133013.13,A,4811.82322,N,00300.85858,W,1.9,182.4,191016,,,D*6F
46.508,$GPGST,133013.00,,,,,1.42,2.96,1.51*6B
47.388,$GPGGA,133014.00,4811.822678,N,00300.858745,W,5,06,2.7,172.536,M,0.000,M,1.0,0001*6A
47.391,$GPVTG,183.5,T,,,1.88,N,3.49,K,D*45
47.428,$GPZDA,133014.00,19,10,2016,+00,00*45
47.468,$GPRMC,133014.13,A,4811.82268,N,00300.85874,W,1.9,183.5,191016,,,D*69
47.509,$GPGST,133014.00,,,,,1.42,2.95,1.51*6F
48.388,$GPGGA,133015.00,4811.822290,N,00300.858828,W,5,06,2.7,172.311,M,0.000,M,1.0,0001*6E
48.391,$GPVTG,184.5,T,,,1.89,N,3.50,K,D*4B
48.428,$GPZDA,133015.00,19,10,2016,+00,00*44
48.468,$GPRMC,133015.13,A,4811.82229,N,00300.85883,W,1.9,184.5,191016,,,D*62
48.508,$GPGST,133015.00,,,,,1.41,2.94,1.50*6D
49.388,$GPGGA,133016.00,4811.821600,N,00300.859080,W,5,06,2.7,172.741,M,0.000,M,1.0,0001*69
49.391,$GPVTG,185.6,T,,,1.89,N,3.51,K,D*48
49.428,$GPZDA,133016.00,19,10,2016,+00,00*47
49.468,$GPRMC,133016.13,A,4811.82160,N,00300.85908,W,1.9,185.6,191016,,,D*6F
49.508,$GPGST,133016.00,,,,,1.41,2.94,1.50*6E
50.388,$GPGGA,133017.00,4811.821204,N,00300.859257,W,5,06,2.7,172.042,M,0.000,M,1.0,0001*64
50.391,$GPVTG,186.6,T,,,1.90,N,3.52,K,D*40
50.428,$GPZDA,133017.00,19,10,2016,+00,00*46
50.468,$GPRMC,133017.13,A,4811.82120,N,00300.85926,W,1.9,186.6,191016,,,D*65
50.508,$GPGST,133017.00,,,,,1.40,2.93,1.49*61
51.388,$GPGGA,133018.00,4811.820631,N,00300.859435,W,5,06,2.7,172.352,M,0.000,M,1.0,0001*68
51.391,$GPVTG,187.5,T,,,1.90,N,3.52,K,D*42
51.428,$GPZDA,133018.00,19,10,2016,+00,00*49
51.468,$GPRMC,133018.13,A,4811.82063,N,00300.85943,W,1.9,187.5,191016,,,D*6D
51.508,$GPGST,133018.00,,,,,1.40,2.93,1.49*6E
52.388,$GPGGA,133019.00,4811.820144,N,00300.859614,W,5,06,2.7,172.386,M,0.000,M,1.0,0001*64
52.391,$GPVTG,188.3,T,,,1.90,N,3.52,K,D*4B
52.428,$GPZDA,133019.00,19,10,2016,+00,00*48
52.468,$GPRMC,133019.13,A,4811.82014,N,00300.85961,W,1.9,188.3,191016,,,D*65
52.508,$GPGST,133019.00,,,,,1.39,2.92,1.49*60
53.388,$GPGGA,133020.00,4811.819706,N,00300.859828,W,5,06,2.7,172.130,M,0.000,M,1.0,0001*6A
53.391,$GPVTG,189.1,T,,,1.90,N,3.51,K,D*4B
53.428,$GPZDA,133020.00,19,10,2016,+00,00*42
53.468,$GPRMC,133020.13,A,4811.81971,N,00300.85983,W,1.9,189.1,191016,,,D*69
53.508,$GPGST,133020.00,,,,,1.39,2.92,1.48*6B
54.387,$GPGGA,133021.00,4811.819192,N,00300.860078,W,5,06,2.7,172.156,M,0.000,M,1.0,0001*67
54.390,$GPVTG,190.0,T,,,1.89,N,3.50,K,D*4B
54.428,$GPZDA,133021.00,19,10,2016,+00,00*43
54.468,$GPRMC,133021.13,A,4811.81919,N,00300.86008,W,1.9,190.0,191016,,,D*66
54.508,$GPGST,133021.00,,,,,1.38,2.91,1.48*68
55.387,$GPGGA,133022.00,4811.818777,N,00300.860286,W,5,06,2.7,171.916,M,0.000,M,1.0,0001*64
55.390,$GPVTG,191.0,T,,,1.89,N,3.49,K,D*42
55.428,$GPZDA,133022.00,19,10,2016,+00,00*40
55.468,$GPRMC,133022.13,A,4811.81878,N,00300.86029,W,1.9,191.0,191016,,,D*61
55.508,$GPGST,133022.00,,,,,1.38,2.90,1.47*65
56.387,$GPGGA,133023.00,4811.818253,N,00300.860570,W,5,05,8.7,171.807,M,0.000,M,1.0,0001*60
56.390,$GPVTG,191.8,T,,,1.87,N,3.46,K,D*4B
56.428,$GPZDA,133023.00,19,10,2016,+00,00*41
56.468,$GPRMC,133023.13,A,4811.81825,N,00300.86057,W,1.9,191.8,191016,,,D*69
56.508,$GPGST,133023.00,,,,,1.40,2.90,1.52*6F
57.387,$GPGGA,133024.00,4811.817735,N,00300.860842,W,5,05,8.7,172.010,M,0.000,M,1.0,0001*6C
57.390,$GPVTG,193.2,T,,,1.84,N,3.41,K,D*47
57.428,$GPZDA,133024.00,19,10,2016,+00,00*46
57.468,$GPRMC,133024.13,A,4811.81773,N,00300.86084,W,1.8,193.2,191016,,,D*65
57.508,$GPGST,133024.00,,,,,1.40,2.89,1.51*63
58.387,$GPGGA,133025.00,4811.817274,N,00300.861148,W,5,05,8.7,172.017,M,0.000,M,1.0,0001*68
58.390,$GPVTG,194.7,T,,,1.81,N,3.36,K,D*40
58.428,$GPZDA,133025.00,19,10,2016,+00,00*47
58.468,$GPRMC,133025.13,A,4811.81727,N,00300.86115,W,1.8,194.7,191016,,,D*6E
58.508,$GPGST,133025.00,,,,,1.39,2.88,1.50*6C
59.387,$GPGGA,133026.00,4811.816944,N,00300.861439,W,5,05,8.7,171.986,M,0.000,M,1.0,0001*63
59.390,$GPVTG,196.4,T,,,1.80,N,3.33,K,D*45
59.428,$GPZDA,133026.00,19,10,2016,+00,00*44
59.468,$GPRMC,133026.13,A,4811.81694,N,00300.86144,W,1.8,196.4,191016,,,D*61
59.508,$GPGST,133026.00,,,,,1.38,2.86,1.48*69
60.387,$GPGGA,133027.00,4811.816479,N,00300.861814,W,5,05,8.7,172.088,M,0.000,M,1.0,0001*66
60.390,$GPVTG,198.2,T,,,1.79,N,3.31,K,D*49
60.428,$GPZDA,133027.00,19,10,2016,+00,00*45
60.468,$GPRMC,133027.13,A,4811.81648,N,00300.86181,W,1.8,198.2,191016,,,D*60
60.508,$GPGST,133027.00,,,,,1.37,2.85,1.47*6B
61.387,$GPGGA,133028.00,4811.815999,N,00300.862221,W,5,05,8.7,172.410,M,0.000,M,1.0,0001*63
61.391,$GPVTG,200.3,T,,,1.77,N,3.28,K,D*4C
61.427,$GPZDA,133028.00,19,10,2016,+00,00*4A
61.468,$GPRMC,133028.13,A,4811.81600,N,00300.86222,W,1.8,200.3,191016,,,D*6A
61.508,$GPGST,133028.00,,,,,1.37,2.85,1.46*65
62.387,$GPGGA,133029.00,4811.815583,N,00300.862715,W,5,05,8.7,172.140,M,0.000,M,1.0,0001*67
62.391,$GPVTG,202.7,T,,,1.75,N,3.24,K,D*44
62.427,$GPZDA,133029.00,19,10,2016,+00,00*4B
62.468,$GPRMC,133029.13,A,4811.81558,N,00300.86272,W,1.7,202.7,191016,,,D*69
62.508,$GPGST,133029.00,,,,,1.37,2.84,1.46*65
63.387,$GPGGA,133030.00,4811.815128,N,00300.863233,W,5,06,2.7,172.026,M,0.000,M,1.0,0001*62
63.391,$GPVTG,204.8,T,,,1.75,N,3.25,K,D*4C
63.428,$GPZDA,133030.00,19,10,2016,+00,00*43
63.468,$GPRMC,133030.13,A,4811.81513,N,00300.86323,W,1.8,204.8,191016,,,D*6D
63.508,$GPGST,133030.00,,,,,1.34,2.84,1.41*69
64.388,$GPGGA,133031.00,4811.814571,N,00300.863271,W,5,06,2.7,172.683,M,0.000,M,1.0,0001*65
64.391,$GPVTG,207.3,T,,,1.76,N,3.25,K,D*47
64.429,$GPZDA,133031.00,19,10,2016,+00,00*42
64.469,$GPRMC,133031.13,A,4811.81457,N,00300.86327,W,1.8,207.3,191016,,,D*61
64.509,$GPGST,133031.00,,,,,1.33,2.83,1.40*69
65.388,$GPGGA,133032.00,4811.814389,N,00300.863731,W,5,06,2.7,172.056,M,0.000,M,1.0,0001*68
65.391,$GPVTG,209.7,T,,,1.76,N,3.26,K,D*4E
65.429,$GPZDA,133032.00,19,10,2016,+00,00*41
65.469,$GPRMC,133032.13,A,4811.81439,N,00300.86373,W,1.8,209.7,191016,,,D*61
65.509,$GPGST,133032.00,,,,,1.33,2.83,1.40*6A
66.388,$GPGGA,133033.00,4811.814046,N,00300.864228,W,5,06,2.7,172.395,M,0.000,M,1.0,0001*6F
66.391,$GPVTG,212.1,T,,,1.76,N,3.26,K,D*42
66.428,$GPZDA,133033.00,19,10,2016,+00,00*40
66.468,$GPRMC,133033.13,A,4811.81405,N,00300.86423,W,1.8,212.1,191016,,,D*61
66.509,$GPGST,133033.00,,,,,1.33,2.82,1.40*6A
67.388,$GPGGA,133034.00,4811.813729,N,00300.864801,W,5,06,2.7,172.341,M,0.000,M,1.0,0001*69
67.391,$GPVTG,214.4,T,,,1.76,N,3.26,K,D*41
67.429,$GPZDA,133034.00,19,10,2016,+00,00*47
67.469,$GPRMC,133034.13,A,4811.81373,N,00300.86480,W,1.8,214.4,191016,,,D*6A
67.509,$GPGST,133034.00,,,,,1.32,2.82,1.40*6C
68.388,$GPGGA,133035.00,4811.813376,N,00300.865403,W,5,06,2.7,172.366,M,0.000,M,1.0,0001*6C
68.391,$GPVTG,216.7,T,,,1.76,N,3.26,K,D*40
68.428,$GPZDA,133035.00,19,10,2016,+00,00*46
68.468,$GPRMC,133035.13,A,4811.81338,N,00300.86540,W,1.8,216.7,191016,,,D*68
68.509,$GPGST,133035.00,,,,,1.32,2.82,1.39*63
69.388,$GPGGA,133036.00,4811.813128,N,00300.865959,W,5,06,2.7,172.286,M,0.000,M,1.0,0001*6B
69.391,$GPVTG,218.9,T,,,1.76,N,3.27,K,D*41
69.428,$GPZDA,133036.00,19,10,2016,+00,00*45
69.468,$GPRMC,133036.13,A,4811.81313,N,00300.86596,W,1.8,218.9,191016,,,D*69
69.509,$GPGST,133036.00,,,,,1.31,2.81,1.39*60
70.388,$GPGGA,133037.00,4811.812893,N,00300.866584,W,5,06,2.7,172.209,M,0.000,M,1.0,0001*6A
70.391,$GPVTG,220.8,T,,,1.77,N,3.28,K,D*45
70.428,$GPZDA,133037.00,19,10,2016,+00,00*44
70.468,$GPRMC,133037.13,A,4811.81289,N,00300.86658,W,1.8,220.8,191016,,,D*61
70.509,$GPGST,133037.00,,,,,1.31,2.81,1.39*61
71.388,$GPGGA,133038.00,4811.812450,N,00300.867243,W,5,06,2.7,172.007,M,0.000,M,1.0,0001*67
71.391,$GPVTG,222.7,T,,,1.77,N,3.27,K,D*47
71.428,$GPZDA,133038.00,19,10,2016,+00,00*4B
71.468,$GPRMC,133038.13,A,4811.81245,N,00300.86724,W,1.8,222.7,191016,,,D*69
71.509,$GPGST,133038.00,,,,,1.31,2.81,1.38*6F
72.388,$GPGGA,133039.00,4811.812110,N,00300.868216,W,5,07,2.6,172.246,M,0.000,M,1.0,0001*6F
72.391,$GPVTG,224.7,T,,,1.77,N,3.27,K,D*41
72.428,$GPZDA,133039.00,19,10,2016,+00,00*4A
72.468,$GPRMC,133039.13,A,4811.81211,N,00300.86822,W,1.8,224.7,191016,,,D*66
72.508,$GPGST,133039.00,,,,,1.31,2.80,1.38*6F
73.388,$GPGGA,133040.00,4811.811887,N,00300.869717,W,5,07,2.6,172.094,M,0.000,M,1.0,0001*6D
73.391,$GPVTG,226.7,T,,,1.76,N,3.26,K,D*43
73.428,$GPZDA,133040.00,19,10,2016,+00,00*44
73.468,$GPRMC,133040.13,A,4811.81189,N,00300.86972,W,1.8,226.7,191016,,,D*6C
73.508,$GPGST,133040.00,,,,,1.31,2.80,1.38*61
74.388,$GPGGA,133041.00,4811.811478,N,00300.870037,W,5,07,2.6,172.238,M,0.000,M,1.0,0001*69
74.391,$GPVTG,228.7,T,,,1.76,N,3.27,K,D*4C
74.428,$GPZDA,133041.00,19,10,2016,+00,00*45
74.468,$GPRMC,133041.13,A,4811.81148,N,00300.87004,W,1.8,228.7,191016,,,D*67
74.508,$GPGST,133041.00,,,,,1.30,2.80,1.37*6E
75.388,$GPGGA,133042.00,4811.811300,N,00300.870724,W,5,07,2.6,171.783,M,0.000,M,1.0,0001*61
75.391,$GPVTG,230.7,T,,,1.76,N,3.26,K,D*44
75.428,$GPZDA,133042.00,19,10,2016,+00,00*46
75.468,$GPRMC,133042.13,A,4811.81130,N,00300.87072,W,1.8,230.7,191016,,,D*63
75.508,$GPGST,133042.00,,,,,1.30,2.79,1.37*6B
76.388,$GPGGA,133043.00,4811.811106,N,00300.871979,W,5,06,3.0,171.793,M,0.000,M,1.0,0001*64
76.391,$GPVTG,232.8,T,,,1.75,N,3.25,K,D*49
76.428,$GPZDA,133043.00,19,10,2016,+00,00*47
76.468,$GPRMC,133043.13,A,4811.81111,N,00300.87198,W,1.8,232.8,191016,,,D*69
76.508,$GPGST,133043.00,,,,,1.30,2.79,1.37*6A
77.388,$GPGGA,133044.00,4811.810930,N,00300.872465,W,5,06,3.0,171.943,M,0.000,M,1.0,0001*6F
77.391,$GPVTG,234.8,T,,,1.75,N,3.24,K,D*4E
77.428,$GPZDA,133044.00,19,10,2016,+00,00*40
77.468,$GPRMC,133044.13,A,4811.81093,N,00300.87247,W,1.8,234.8,191016,,,D*62
77.508,$GPGST,133044.00,,,,,1.30,2.79,1.37*6D
78.388,$GPGGA,133045.00,4811.810792,N,00300.873207,W,5,07,1.9,171.901,M,0.000,M,1.0,0001*67
78.391,$GPVTG,237.0,T,,,1.75,N,3.23,K,D*42
78.428,$GPZDA,133045.00,19,10,2016,+00,00*41
78.468,$GPRMC,133045.13,A,4811.81079,N,00300.87321,W,1.7,237.0,191016,,,D*62
78.508,$GPGST,133045.00,,,,,1.29,2.78,1.36*64
79.388,$GPGGA,133046.00,4811.810465,N,00300.873693,W,5,07,1.9,172.292,M,0.000,M,1.0,0001*64
79.392,$GPVTG,239.4,T,,,1.74,N,3.23,K,D*49
79.428,$GPZDA,133046.00,19,10,2016,+00,00*42
79.468,$GPRMC,133046.13,A,4811.81047,N,00300.87369,W,1.7,239.4,191016,,,D*6A
79.508,$GPGST,133046.00,,,,,1.29,2.78,1.36*67
80.388,$GPGGA,133047.00,4811.810772,N,00300.873620,W,5,07,1.9,171.576,M,0.000,M,1.0,0001*66
80.392,$GPVTG,241.8,T,,,1.74,N,3.22,K,D*4B
80.428,$GPZDA,133047.00,19,10,2016,+00,00*43
80.468,$GPRMC,133047.13,A,4811.81077,N,00300.87362,W,1.7,241.8,191016,,,D*60
80.508,$GPGST,133047.00,,,,,1.29,2.78,1.35*65
81.387,$GPGGA,133048.00,4811.810101,N,00300.876911,W,5,07,1.9,171.890,M,0.000,M,1.0,0001*66
81.391,$GPVTG,244.4,T,,,1.74,N,3.22,K,D*42
81.428,$GPZDA,133048.00,19,10,2016,+00,00*4C
81.468,$GPRMC,133048.13,A,4811.81010,N,00300.87691,W,1.7,244.4,191016,,,D*6E
81.508,$GPGST,133048.00,,,,,1.29,2.77,1.35*65
82.388,$GPGGA,133049.00,4811.810458,N,00300.877127,W,5,08,1.8,171.512,M,0.000,M,1.0,0001*6B
82.391,$GPVTG,246.9,T,,,1.74,N,3.22,K,D*4D
82.428,$GPZDA,133049.00,19,10,2016,+00,00*4D
82.468,$GPRMC,133049.13,A,4811.81046,N,00300.87713,W,1.7,246.9,191016,,,D*68
82.508,$GPGST,133049.00,,,,,1.28,2.77,1.35*65
83.388,$GPGGA,133050.00,4811.810634,N,00300.878783,W,5,08,1.8,171.295,M,0.000,M,1.0,0001*64
83.391,$GPVTG,249.3,T,,,1.74,N,3.22,K,D*48
83.429,$GPZDA,133050.00,19,10,2016,+00,00*45
83.469,$GPRMC,133050.13,A,4811.81063,N,00300.87878,W,1.7,249.3,191016,,,D*60
83.509,$GPGST,133050.00,,,,,1.28,2.76,1.35*6C
84.388,$GPGGA,133051.00,4811.810241,N,00300.879240,W,5,08,1.8,171.938,M,0.000,M,1.0,0001*64
84.391,$GPVTG,251.8,T,,,1.74,N,3.23,K,D*4B
84.429,$GPZDA,133051.00,19,10,2016,+00,00*44
84.469,$GPRMC,133051.13,A,4811.81024,N,00300.87924,W,1.7,251.8,191016,,,D*68
84.509,$GPGST,133051.00,,,,,1.28,2.76,1.34*6C
85.388,$GPGGA,133052.00,4811.810363,N,00300.880273,W,5,08,1.8,171.969,M,0.000,M,1.0,0001*64
85.391,$GPVTG,254.2,T,,,1.75,N,3.24,K,D*42
85.429,$GPZDA,133052.00,19,10,2016,+00,00*47
85.469,$GPRMC,133052.13,A,4811.81036,N,00300.88027,W,1.7,254.2,191016,,,D*62
85.509,$GPGST,133052.00,,,,,1.28,2.75,1.34*6C
86.388,$GPGGA,133053.00,4811.810646,N,00300.881092,W,5,08,1.8,171.352,M,0.000,M,1.0,0001*69
86.391,$GPVTG,256.4,T,,,1.76,N,3.26,K,D*47
86.429,$GPZDA,133053.00,19,10,2016,+00,00*46
86.469,$GPRMC,133053.13,A,4811.81065,N,00300.88109,W,1.8,256.4,191016,,,D*63
86.509,$GPGST,133053.00,,,,,1.27,2.75,1.34*62
87.388,$GPGGA,133054.00,4811.810307,N,00300.881503,W,5,07,2.6,171.930,M,0.000,M,1.0,0001*6F
87.391,$GPVTG,258.5,T,,,1.78,N,3.29,K,D*49
87.429,$GPZDA,133054.00,19,10,2016,+00,00*41
87.469,$GPRMC,133054.13,A,4811.81031,N,00300.88150,W,1.8,258.5,191016,,,D*66
87.509,$GPGST,133054.00,,,,,1.28,2.75,1.34*6A
88.388,$GPGGA,133055.00,4811.810508,N,00300.882097,W,5,07,2.6,171.728,M,0.000,M,1.0,0001*6B
88.391,$GPVTG,260.4,T,,,1.79,N,3.31,K,D*4B
88.429,$GPZDA,133055.00,19,10,2016,+00,00*40
88.469,$GPRMC,133055.13,A,4811.81051,N,00300.88210,W,1.8,260.4,191016,,,D*6C
88.509,$GPGST,133055.00,,,,,1.27,2.74,1.34*65
89.388,$GPGGA,133056.00,4811.810608,N,00300.883920,W,5,07,2.6,171.702,M,0.000,M,1.0,0001*67
89.391,$GPVTG,262.1,T,,,1.80,N,3.33,K,D*48
89.428,$GPZDA,133056.00,19,10,2016,+00,00*43
89.469,$GPRMC,133056.13,A,4811.81061,N,00300.88392,W,1.8,262.1,191016,,,D*60
89.509,$GPGST,133056.00,,,,,1.27,2.74,1.34*66
90.388,$GPGGA,133057.00,4811.810641,N,00300.884804,W,5,07,2.6,171.382,M,0.000,M,1.0,0001*67
90.391,$GPVTG,263.5,T,,,1.81,N,3.36,K,D*49
90.428,$GPZDA,133057.00,19,10,2016,+00,00*42
90.469,$GPRMC,133057.13,A,4811.81064,N,00300.88480,W,1.8,263.5,191016,,,D*65
90.509,$GPGST,133057.00,,,,,1.27,2.74,1.33*60
91.388,$GPGGA,133058.00,4811.810581,N,00300.885522,W,5,07,2.6,171.465,M,0.000,M,1.0,0001*61
91.391,$GPVTG,264.5,T,,,1.83,N,3.39,K,D*43
91.428,$GPZDA,133058.00,19,10,2016,+00,00*4D
91.469,$GPRMC,133058.13,A,4811.81058,N,00300.88552,W,1.8,264.5,191016,,,D*6C
91.509,$GPGST,133058.00,,,,,1.27,2.74,1.33*6F
92.388,$GPGGA,133059.00,4811.810531,N,00300.886455,W,5,07,2.6,171.565,M,0.000,M,1.0,0001*68
92.391,$GPVTG,265.3,T,,,1.84,N,3.41,K,D*4C
92.428,$GPZDA,133059.00,19,10,2016,+00,00*4C
92.469,$GPRMC,133059.13,A,4811.81053,N,00300.88646,W,1.8,265.3,191016,,,D*67
92.509,$GPGST,133059.00,,,,,1.27,2.73,1.33*69
93.388,$GPGGA,133100.00,4811.810557,N,00300.886791,W,5,07,2.6,171.513,M,0.000,M,1.0,0001*6F
93.391,$GPVTG,266.1,T,,,1.85,N,3.43,K,D*4E
93.428,$GPZDA,133100.00,19,10,2016,+00,00*41
93.468,$GPRMC,133100.13,A,4811.81056,N,00300.88679,W,1.9,266.1,191016,,,D*63
93.508,$GPGST,133100.00,,,,,1.26,2.73,1.33*65
94.388,$GPGGA,133101.00,4811.810466,N,00300.887623,W,5,07,2.6,171.383,M,0.000,M,1.0,0001*6B
94.391,$GPVTG,266.7,T,,,1.86,N,3.44,K,D*4C
94.428,$GPZDA,133101.00,19,10,2016,+00,00*40
94.468,$GPRMC,133101.13,A,4811.81047,N,00300.88762,W,1.9,266.7,191016,,,D*6F
94.509,$GPGST,133101.00,,,,,1.26,2.73,1.32*65
95.388,$GPGGA,133102.00,4811.810635,N,00300.888624,W,5,07,2.6,171.130,M,0.000,M,1.0,0001*6E
95.391,$GPVTG,267.0,T,,,1.86,N,3.45,K,D*4B
95.428,$GPZDA,133102.00,19,10,2016,+00,00*43
95.468,$GPRMC,133102.13,A,4811.81064,N,00300.88862,W,1.9,267.0,191016,,,D*64
95.509,$GPGST,133102.00,,,,,1.26,2.72,1.32*67
96.388,$GPGGA,133103.00,4811.810321,N,00300.888389,W,5,08,1.8,171.738,M,0.000,M,1.0,0001*61
96.391,$GPVTG,267.3,T,,,1.87,N,3.46,K,D*4A
96.428,$GPZDA,133103.00,19,10,2016,+00,00*42
96.468,$GPRMC,133103.13,A,4811.81032,N,00300.88839,W,1.9,267.3,191016,,,D*6B
96.509,$GPGST,133103.00,,,,,1.25,2.72,1.31*66
97.388,$GPGGA,133104.00,4811.810366,N,00300.889741,W,5,08,1.8,171.624,M,0.000,M,1.0,0001*68
97.392,$GPVTG,267.7,T,,,1.87,N,3.46,K,D*4E
97.428,$GPZDA,133104.00,19,10,2016,+00,00*45
97.468,$GPRMC,133104.13,A,4811.81037,N,00300.88974,W,1.9,267.7,191016,,,D*65
97.509,$GPGST,133104.00,,,,,1.25,2.71,1.31*62
98.388,$GPGGA,133105.00,4811.810535,N,00300.890392,W,5,08,1.8,171.311,M,0.000,M,1.0,0001*68
98.392,$GPVTG,268.1,T,,,1.87,N,3.46,K,D*47
98.428,$GPZDA,133105.00,19,10,2016,+00,00*44
98.468,$GPRMC,133105.13,A,4811.81054,N,00300.89039,W,1.9,268.1,191016,,,D*69
98.508,$GPGST,133105.00,,,,,1.25,2.71,1.31*63
99.388,$GPGGA,133106.00,4811.810364,N,00300.891388,W,5,08,1.8,171.649,M,0.000,M,1.0,0001*6B
99.392,$GPVTG,268.4,T,,,1.87,N,3.46,K,D*42
99.428,$GPZDA,133106.00,19,10,2016,+00,00*47
99.468,$GPRMC,133106.13,A,4811.81036,N,00300.89139,W,1.9,268.4,191016,,,D*6A
99.508,$GPGST,133106.00,,,,,1.25,2.70,1.31*61
100.388,$GPGGA,133107.00,4811.810399,N,00300.892864,W,5,08,1.8,171.913,M,0.000,M,1.0,0001*62
100.392,$GPVTG,268.9,T,,,1.87,N,3.46,K,D*4F
100.428,$GPZDA,133107.00,19,10,2016,+00,00*46
100.468,$GPRMC,133107.13,A,4811.81040,N,00300.89286,W,1.9,268.9,191016,,,D*60
100.508,$GPGST,133107.00,,,,,1.25,2.70,1.31*60
101.389,$GPGGA,133108.00,4811.810479,N,00300.893309,W,5,08,1.8,171.941,M,0.000,M,1.0,0001*62
101.392,$GPVTG,269.3,T,,,1.87,N,3.46,K,D*44
101.429,$GPZDA,133108.00,19,10,2016,+00,00*49
101.469,$GPRMC,133108.13,A,4811.81048,N,00300.89331,W,1.9,269.3,191016,,,D*61
101.509,$GPGST,133108.00,,,,,1.24,2.69,1.30*67
102.389,$GPGGA,133109.00,4811.810593,N,00300.892017,W,5,08,1.8,171.983,M,0.000,M,1.0,0001*65
102.392,$GPVTG,269.9,T,,,1.87,N,3.46,K,D*4E
102.429,$GPZDA,133109.00,19,10,2016,+00,00*48
102.469,$GPRMC,133109.13,A,4811.81059,N,00300.89202,W,1.9,269.9,191016,,,D*6B
102.509,$GPGST,133109.00,,,,,1.24,2.69,1.30*66
103.389,$GPGGA,133110.00,4811.810520,N,00300.892989,W,5,08,1.8,171.893,M,0.000,M,1.0,0001*6B
103.392,$GPVTG,270.5,T,,,1.87,N,3.46,K,D*4A
103.429,$GPZDA,133110.00,19,10,2016,+00,00*40
103.469,$GPRMC,133110.13,A,4811.81052,N,00300.89299,W,1.9,270.5,191016,,,D*6E
103.509,$GPGST,133110.00,,,,,1.24,2.68,1.30*6F
104.389,$GPGGA,133111.00,4811.810287,N,00300.892240,W,5,08,1.8,172.572,M,0.000,M,1.0,0001*6F
104.392,$GPVTG,271.2,T,,,1.87,N,3.47,K,D*4D
104.429,$GPZDA,133111.00,19,10,2016,+00,00*41
104.469,$GPRMC,133111.13,A,4811.81029,N,00300.89224,W,1.9,271.2,191016,,,D*63
104.509,$GPGST,133111.00,,,,,1.24,2.68,1.30*6E
105.389,$GPGGA,133112.00,4811.810236,N,00300.893580,W,5,08,1.8,172.354,M,0.000,M,1.0,0001*6E
105.392,$GPVTG,272.0,T,,,1.87,N,3.47,K,D*4C
105.429,$GPZDA,133112.00,19,10,2016,+00,00*42
105.469,$GPRMC,133112.13,A,4811.81024,N,00300.89358,W,1.9,272.0,191016,,,D*66
105.509,$GPGST,133112.00,,,,,1.24,2.68,1.29*65
106.389,$GPGGA,133113.00,4811.810762,N,00300.895266,W,5,08,1.8,171.940,M,0.000,M,1.0,0001*6E
106.392,$GPVTG,272.9,T,,,1.87,N,3.46,K,D*44
106.429,$GPZDA,133113.00,19,10,2016,+00,00*43
106.469,$GPRMC,133113.13,A,4811.81076,N,00300.89527,W,1.9,272.9,191016,,,D*67
106.509,$GPGST,133113.00,,,,,1.23,2.67,1.29*6C
107.389,$GPGGA,133114.00,4811.810512,N,00300.895055,W,5,08,1.8,172.059,M,0.000,M,1.0,0001*6C
107.392,$GPVTG,274.0,T,,,1.87,N,3.46,K,D*4B
107.429,$GPZDA,133114.00,19,10,2016,+00,00*44
107.469,$GPRMC,133114.13,A,4811.81051,N,00300.89506,W,1.9,274.0,191016,,,D*69
107.509,$GPGST,133114.00,,,,,1.23,2.67,1.29*6B
108.388,$GPGGA,133115.00,4811.810414,N,00300.895585,W,5,08,1.8,172.629,M,0.000,M,1.0,0001*63
108.391,$GPVTG,275.0,T,,,1.86,N,3.45,K,D*48
108.429,$GPZDA,133115.00,19,10,2016,+00,00*45
108.469,$GPRMC,133115.13,A,4811.81041,N,00300.89559,W,1.9,275.0,191016,,,D*62
108.509,$GPGST,133115.00,,,,,1.23,2.66,1.29*6B
109.388,$GPGGA,133116.00,4811.810455,N,00300.897016,W,5,08,1.8,172.770,M,0.000,M,1.0,0001*65
109.391,$GPVTG,276.3,T,,,1.86,N,3.45,K,D*48
109.429,$GPZDA,133116.00,19,10,2016,+00,00*46
109.469,$GPRMC,133116.13,A,4811.81046,N,00300.89702,W,1.9,276.3,191016,,,D*6A
109.509,$GPGST,133116.00,,,,,1.23,2.66,1.28*69
110.388,$GPGGA,133117.00,4811.810649,N,00300.897974,W,5,08,1.8,172.447,M,0.000,M,1.0,0001*61
110.391,$GPVTG,277.4,T,,,1.86,N,3.44,K,D*4F
110.429,$GPZDA,133117.00,19,10,2016,+00,00*47
110.469,$GPRMC,133117.13,A,4811.81065,N,00300.89797,W,1.9,277.4,191016,,,D*60
110.509,$GPGST,133117.00,,,,,1.23,2.66,1.28*68
111.388,$GPGGA,133118.00,4811.810981,N,00300.899172,W,5,08,1.8,172.019,M,0.000,M,1.0,0001*6A
111.391,$GPVTG,278.7,T,,,1.86,N,3.44,K,D*43
111.429,$GPZDA,133118.00,19,10,2016,+00,00*48
111.469,$GPRMC,133118.13,A,4811.81098,N,00300.89917,W,1.9,278.7,191016,,,D*67
111.509,$GPGST,133118.00,,,,,1.23,2.65,1.28*64
112.388,$GPGGA,133119.00,4811.811163,N,00300.899659,W,5,08,1.8,172.110,M,0.000,M,1.0,0001*68
112.391,$GPVTG,279.9,T,,,1.86,N,3.44,K,D*4C
112.429,$GPZDA,133119.00,19,10,2016,+00,00*49
112.469,$GPRMC,133119.13,A,4811.81116,N,00300.89966,W,1.9,279.9,191016,,,D*68
112.509,$GPGST,133119.00,,,,,1.22,2.65,1.28*64
113.388,$GPGGA,133120.00,4811.811248,N,00300.900421,W,5,08,1.8,172.043,M,0.000,M,1.0,0001*63
113.391,$GPVTG,281.2,T,,,1.85,N,3.43,K,D*44
113.429,$GPZDA,133120.00,19,10,2016,+00,00*43
113.469,$GPRMC,133120.13,A,4811.81125,N,00300.90042,W,1.9,281.2,191016,,,D*69
113.509,$GPGST,133120.00,,,,,1.22,2.64,1.28*6F
114.388,$GPGGA,133121.00,4811.811573,N,00300.900625,W,5,08,1.8,172.217,M,0.000,M,1.0,0001*68
114.391,$GPVTG,282.5,T,,,1.85,N,3.43,K,D*40
114.429,$GPZDA,133121.00,19,10,2016,+00,00*42
114.469,$GPRMC,133121.13,A,4811.81157,N,00300.90063,W,1.9,282.5,191016,,,D*6A
114.509,$GPGST,133121.00,,,,,1.22,2.64,1.27*61
115.388,$GPGGA,133122.00,4811.811870,N,00300.902470,W,5,08,1.8,172.058,M,0.000,M,1.0,0001*6C
115.392,$GPVTG,283.8,T,,,1.85,N,3.43,K,D*4C
115.429,$GPZDA,133122.00,19,10,2016,+00,00*41
115.469,$GPRMC,133122.13,A,4811.81187,N,00300.90247,W,1.9,283.8,191016,,,D*6C
115.509,$GPGST,133122.00,,,,,1.22,2.63,1.27*65
116.388,$GPGGA,133123.00,4811.812007,N,00300.903425,W,5,08,1.8,172.077,M,0.000,M,1.0,0001*6A
116.392,$GPVTG,285.0,T,,,1.85,N,3.43,K,D*42
116.428,$GPZDA,133123.00,19,10,2016,+00,00*40
116.469,$GPRMC,133123.13,A,4811.81201,N,00300.90343,W,1.9,285.0,191016,,,D*6B
116.509,$GPGST,133123.00,,,,,1.21,2.63,1.27*67
117.388,$GPGGA,133124.00,4811.812152,N,00300.903009,W,5,08,1.8,172.250,M,0.000,M,1.0,0001*61
117.392,$GPVTG,286.4,T,,,1.85,N,3.43,K,D*45
117.429,$GPZDA,133124.00,19,10,2016,+00,00*47
117.469,$GPRMC,133124.13,A,4811.81215,N,00300.90301,W,1.9,286.4,191016,,,D*68
117.509,$GPGST,133124.00,,,,,1.21,2.63,1.27*60
118.389,$GPGGA,133125.00,4811.812231,N,00300.903711,W,5,08,1.8,172.312,M,0.000,M,1.0,0001*6F
118.392,$GPVTG,288.0,T,,,1.86,N,3.44,K,D*4B
118.429,$GPZDA,133125.00,19,10,2016,+00,00*46
118.470,$GPRMC,133125.13,A,4811.81223,N,00300.90371,W,1.9,288.0,191016,,,D*61
118.510,$GPGST,133125.00,,,,,1.21,2.62,1.26*61
119.389,$GPGGA,133126.00,4811.812492,N,00300.904999,W,5,07,2.6,172.238,M,0.000,M,1.0,0001*61
119.392,$GPVTG,289.4,T,,,1.86,N,3.45,K,D*4F
119.429,$GPZDA,133126.00,19,10,2016,+00,00*45
119.469,$GPRMC,133126.13,A,4811.81249,N,00300.90500,W,1.9,289.4,191016,,,D*6B
119.510,$GPGST,133126.00,,,,,1.21,2.62,1.27*63
120.389,$GPGGA,133127.00,4811.812651,N,00300.904889,W,5,07,2.6,172.518,M,0.000,M,1.0,0001*68
120.392,$GPVTG,290.7,T,,,1.87,N,3.47,K,D*47
120.429,$GPZDA,133127.00,19,10,2016,+00,00*44
120.469,$GPRMC,133127.13,A,4811.81265,N,00300.90489,W,1.9,290.7,191016,,,D*6F
120.510,$GPGST,133127.00,,,,,1.21,2.62,1.27*62
121.389,$GPGGA,133128.00,4811.812940,N,00300.905164,W,5,07,2.6,172.523,M,0.000,M,1.0,0001*6B
121.392,$GPVTG,291.7,T,,,1.89,N,3.50,K,D*4E
121.429,$GPZDA,133128.00,19,10,2016,+00,00*4B
121.470,$GPRMC,133128.13,A,4811.81294,N,00300.90516,W,1.9,291.7,191016,,,D*68
121.510,$GPGST,133128.00,,,,,1.21,2.62,1.26*6C
122.389,$GPGGA,133129.00,4811.813257,N,00300.906387,W,5,07,2.6,172.293,M,0.000,M,1.0,0001*66
122.392,$GPVTG,292.3,T,,,1.91,N,3.53,K,D*43
122.429,$GPZDA,133129.00,19,10,2016,+00,00*4A
122.469,$GPRMC,133129.13,A,4811.81326,N,00300.90639,W,1.9,292.3,191016,,,D*68
122.510,$GPGST,133129.00,,,,,1.21,2.61,1.26*6E
123.389,$GPGGA,133130.00,4811.813542,N,00300.907275,W,5,07,2.6,172.328,M,0.000,M,1.0,0001*61
123.392,$GPVTG,292.4,T,,,1.92,N,3.56,K,D*42
123.429,$GPZDA,133130.00,19,10,2016,+00,00*42
123.469,$GPRMC,133130.13,A,4811.81354,N,00300.90728,W,1.9,292.4,191016,,,D*63
123.510,$GPGST,133130.00,,,,,1.21,2.61,1.26*66
124.389,$GPGGA,133131.00,4811.813614,N,00300.907816,W,5,07,2.6,172.469,M,0.000,M,1.0,0001*6D
124.392,$GPVTG,292.3,T,,,1.93,N,3.58,K,D*4A
124.429,$GPZDA,133131.00,19,10,2016,+00,00*43
124.469,$GPRMC,133131.13,A,4811.81361,N,00300.90782,W,1.9,292.3,191016,,,D*63
124.510,$GPGST,133131.00,,,,,1.20,2.61,1.26*66
125.389,$GPGGA,133132.00,4811.813854,N,00300.908461,W,5,07,2.6,172.455,M,0.000,M,1.0,0001*68
125.392,$GPVTG,291.6,T,,,1.94,N,3.59,K,D*4A
125.429,$GPZDA,133132.00,19,10,2016,+00,00*40
125.469,$GPRMC,133132.13,A,4811.81385,N,00300.90846,W,1.9,291.6,191016,,,D*6B
125.510,$GPGST,133132.00,,,,,1.20,2.60,1.25*67
126.389,$GPGGA,133133.00,4811.813970,N,00300.909908,W,5,07,2.6,172.455,M,0.000,M,1.0,0001*6D
126.392,$GPVTG,290.4,T,,,1.94,N,3.60,K,D*43
126.429,$GPZDA,133133.00,19,10,2016,+00,00*41
126.469,$GPRMC,133133.13,A,4811.81397,N,00300.90991,W,1.9,290.4,191016,,,D*61
126.509,$GPGST,133133.00,,,,,1.20,2.60,1.25*66
127.389,$GPGGA,133134.00,4811.814199,N,00300.911095,W,5,07,2.6,172.133,M,0.000,M,1.0,0001*63
127.392,$GPVTG,288.8,T,,,1.93,N,3.58,K,D*4A
127.429,$GPZDA,133134.00,19,10,2016,+00,00*46
127.469,$GPRMC,133134.13,A,4811.81420,N,00300.91110,W,1.9,288.8,191016,,,D*68
127.509,$GPGST,133134.00,,,,,1.20,2.60,1.25*61
128.389,$GPGGA,133135.00,4811.814240,N,00300.911887,W,5,06,3.0,171.923,M,0.000,M,1.0,0001*62
128.392,$GPVTG,286.9,T,,,1.91,N,3.55,K,D*4A
128.429,$GPZDA,133135.00,19,10,2016,+00,00*47
128.469,$GPRMC,133135.13,A,4811.81424,N,00300.91189,W,1.9,286.9,191016,,,D*62
128.509,$GPGST,133135.00,,,,,1.20,2.60,1.25*60
129.389,$GPGGA,133136.00,4811.814236,N,00300.912622,W,5,06,3.0,171.977,M,0.000,M,1.0,0001*63
129.392,$GPVTG,284.3,T,,,1.88,N,3.49,K,D*47
129.429,$GPZDA,133136.00,19,10,2016,+00,00*44
129.469,$GPRMC,133136.13,A,4811.81424,N,00300.91262,W,1.9,284.3,191016,,,D*6F
129.509,$GPGST,133136.00,,,,,1.19,2.59,1.24*62
130.389,$GPGGA,133137.00,4811.814224,N,00300.913318,W,5,06,3.0,171.808,M,0.000,M,1.0,0001*65
130.392,$GPVTG,281.4,T,,,1.85,N,3.42,K,D*43
130.429,$GPZDA,133137.00,19,10,2016,+00,00*45
130.469,$GPRMC,133137.13,A,4811.81422,N,00300.91332,W,1.8,281.4,191016,,,D*6F
130.509,$GPGST,133137.00,,,,,1.18,2.57,1.23*6B
131.389,$GPGGA,133138.00,4811.814114,N,00300.913961,W,5,06,3.0,171.943,M,0.000,M,1.0,0001*60
131.392,$GPVTG,278.4,T,,,1.80,N,3.34,K,D*41
131.429,$GPZDA,133138.00,19,10,2016,+00,00*4A
131.469,$GPRMC,133138.13,A,4811.81411,N,00300.91396,W,1.8,278.4,191016,,,D*68
131.509,$GPGST,133138.00,,,,,1.18,2.56,1.22*64
132.389,$GPGGA,133139.00,4811.813959,N,00300.914582,W,5,06,3.0,172.073,M,0.000,M,1.0,0001*68
132.393,$GPVTG,275.1,T,,,1.76,N,3.25,K,D*40
132.429,$GPZDA,133139.00,19,10,2016,+00,00*4B
132.469,$GPRMC,133139.13,A,4811.81396,N,00300.91458,W,1.8,275.1,191016,,,D*6C
132.509,$GPGST,133139.00,,,,,1.17,2.55,1.21*6A
133.389,$GPGGA,133140.00,4811.813837,N,00300.915159,W,5,06,3.0,172.055,M,0.000,M,1.0,0001*68
133.393,$GPVTG,271.5,T,,,1.71,N,3.17,K,D*46
133.429,$GPZDA,133140.00,19,10,2016,+00,00*45
133.469,$GPRMC,133140.13,A,4811.81384,N,00300.91516,W,1.7,271.5,191016,,,D*65
133.509,$GPGST,133140.00,,,,,1.16,2.54,1.20*65
134.389,$GPGGA,133141.00,4811.813586,N,00300.915766,W,5,06,3.0,172.071,M,0.000,M,1.0,0001*62
134.393,$GPVTG,267.6,T,,,1.68,N,3.10,K,D*4D
134.429,$GPZDA,133141.00,19,10,2016,+00,00*44
134.469,$GPRMC,133141.13,A,4811.81359,N,00300.91577,W,1.7,267.6,191016,,,D*67
134.509,$GPGST,133141.00,,,,,1.15,2.53,1.19*6A
135.389,$GPGGA,133142.00,4811.813352,N,00300.916319,W,5,05,8.9,172.063,M,0.000,M,1.0,0001*63
135.392,$GPVTG,263.7,T,,,1.64,N,3.04,K,D*41
135.429,$GPZDA,133142.00,19,10,2016,+00,00*47
135.469,$GPRMC,133142.13,A,4811.81335,N,00300.91632,W,1.6,263.7,191016,,,D*68
135.509,$GPGST,133142.00,,,,,1.18,2.52,1.24*6B
136.389,$GPGGA,133143.00,4811.813074,N,00300.916845,W,5,05,8.9,172.153,M,0.000,M,1.0,0001*65
136.392,$GPVTG,259.9,T,,,1.61,N,2.98,K,D*47
136.430,$GPZDA,133143.00,19,10,2016,+00,00*46
136.470,$GPRMC,133143.13,A,4811.81307,N,00300.91685,W,1.6,259.9,191016,,,D*63
136.510,$GPGST,133143.00,,,,,1.17,2.52,1.23*62
137.389,$GPGGA,133144.00,4811.812816,N,00300.917310,W,5,05,8.9,172.285,M,0.000,M,1.0,0001*6D
137.392,$GPVTG,255.8,T,,,1.59,N,2.94,K,D*4D
137.430,$GPZDA,133144.00,19,10,2016,+00,00*41
137.470,$GPRMC,133144.13,A,4811.81282,N,00300.91731,W,1.6,255.8,191016,,,D*6B
137.510,$GPGST,133144.00,,,,,1.17,2.51,1.23*66
138.389,$GPGGA,133145.00,4811.812513,N,00300.917846,W,5,05,8.9,172.303,M,0.000,M,1.0,0001*63
138.392,$GPVTG,252.1,T,,,1.57,N,2.91,K,D*48
138.430,$GPZDA,133145.00,19,10,2016,+00,00*40
138.470,$GPRMC,133145.13,A,4811.81251,N,00300.91785,W,1.6,252.1,191016,,,D*65
138.510,$GPGST,133145.00,,,,,1.17,2.51,1.23*67
139.389,$GPGGA,133146.00,4811.812209,N,00300.918344,W,5,06,2.7,172.265,M,0.000,M,1.0,0001*6C
139.392,$GPVTG,248.6,T,,,1.57,N,2.90,K,D*45
139.430,$GPZDA,133146.00,19,10,2016,+00,00*43
139.470,$GPRMC,133146.13,A,4811.81221,N,00300.91834,W,1.6,248.6,191016,,,D*68
139.510,$GPGST,133146.00,,,,,1.14,2.51,1.18*6F
140.389,$GPGGA,133147.00,4811.811833,N,00300.918868,W,5,06,2.7,172.436,M,0.000,M,1.0,0001*68
140.392,$GPVTG,245.4,T,,,1.57,N,2.91,K,D*4B
140.430,$GPZDA,133147.00,19,10,2016,+00,00*42
140.470,$GPRMC,133147.13,A,4811.81183,N,00300.91887,W,1.6,245.4,191016,,,D*65
140.510,$GPGST,133147.00,,,,,1.14,2.50,1.17*60
141.389,$GPGGA,133148.00,4811.811483,N,00300.919538,W,5,06,2.7,172.313,M,0.000,M,1.0,0001*69
141.392,$GPVTG,242.4,T,,,1.57,N,2.91,K,D*4C
141.430,$GPZDA,133148.00,19,10,2016,+00,00*4D
141.470,$GPRMC,133148.13,A,4811.81148,N,00300.91954,W,1.6,242.4,191016,,,D*65
141.510,$GPGST,133148.00,,,,,1.14,2.50,1.17*6F
142.389,$GPGGA,133149.00,4811.811200,N,00300.920007,W,5,05,8.9,172.281,M,0.000,M,1.0,0001*6B
142.392,$GPVTG,239.6,T,,,1.58,N,2.93,K,D*4F
142.429,$GPZDA,133149.00,19,10,2016,+00,00*4C
142.470,$GPRMC,133149.13,A,4811.81120,N,00300.92001,W,1.6,239.6,191016,,,D*6E
142.510,$GPGST,133149.00,,,,,1.16,2.49,1.22*62
143.389,$GPGGA,133150.00,4811.810866,N,00300.920501,W,5,06,3.0,172.266,M,0.000,M,1.0,0001*63
143.392,$GPVTG,237.0,T,,,1.60,N,2.96,K,D*49
143.430,$GPZDA,133150.00,19,10,2016,+00,00*44
143.470,$GPRMC,133150.13,A,4811.81087,N,00300.92050,W,1.6,237.0,191016,,,D*66
143.510,$GPGST,133150.00,,,,,1.12,2.48,1.16*68
144.389,$GPGGA,133151.00,4811.810517,N,00300.921026,W,5,06,3.0,172.155,M,0.000,M,1.0,0001*6B
144.392,$GPVTG,235.2,T,,,1.61,N,2.98,K,D*46
144.430,$GPZDA,133151.00,19,10,2016,+00,00*45
144.470,$GPRMC,133151.13,A,4811.81052,N,00300.92103,W,1.6,235.2,191016,,,D*68
144.510,$GPGST,133151.00,,,,,1.12,2.47,1.15*65
145.389,$GPGGA,133152.00,4811.810181,N,00300.921539,W,5,06,3.0,172.213,M,0.000,M,1.0,0001*69
145.392,$GPVTG,233.6,T,,,1.63,N,3.02,K,D*44
145.429,$GPZDA,133152.00,19,10,2016,+00,00*46
145.470,$GPRMC,133152.13,A,4811.81018,N,00300.92154,W,1.6,233.6,191016,,,D*65
145.510,$GPGST,133152.00,,,,,1.11,2.46,1.14*65
146.389,$GPGGA,133153.00,4811.809846,N,00300.922046,W,5,05,8.9,172.182,M,0.000,M,1.0,0001*66
146.392,$GPVTG,232.6,T,,,1.65,N,3.05,K,D*44
146.429,$GPZDA,133153.00,19,10,2016,+00,00*47
146.470,$GPRMC,133153.13,A,4811.80985,N,00300.92205,W,1.6,232.6,191016,,,D*6E
146.510,$GPGST,133153.00,,,,,1.13,2.46,1.19*6B
147.389,$GPGGA,133154.00,4811.809589,N,00300.922535,W,5,05,8.9,172.093,M,0.000,M,1.0,0001*6F
147.392,$GPVTG,232.5,T,,,1.65,N,3.05,K,D*47
147.429,$GPZDA,133154.00,19,10,2016,+00,00*40
147.470,$GPRMC,133154.13,A,4811.80959,N,00300.92253,W,1.6,232.5,191016,,,D*68
147.510,$GPGST,133154.00,,,,,1.13,2.46,1.19*6C
148.389,$GPGGA,133155.00,4811.809291,N,00300.923094,W,5,05,8.9,172.015,M,0.000,M,1.0,0001*61
148.392,$GPVTG,232.2,T,,,1.66,N,3.07,K,D*41
148.429,$GPZDA,133155.00,19,10,2016,+00,00*41
148.469,$GPRMC,133155.13,A,4811.80929,N,00300.92309,W,1.7,232.2,191016,,,D*66
148.510,$GPGST,133155.00,,,,,1.13,2.45,1.18*6F
149.389,$GPGGA,133156.00,4811.808923,N,00300.923646,W,5,05,8.9,172.264,M,0.000,M,1.0,0001*6C
149.392,$GPVTG,232.1,T,,,1.67,N,3.10,K,D*45
149.429,$GPZDA,133156.00,19,10,2016,+00,00*42
149.469,$GPRMC,133156.13,A,4811.80892,N,00300.92365,W,1.7,232.1,191016,,,D*6D
149.510,$GPGST,133156.00,,,,,1.13,2.44,1.18*6D
150.389,$GPGGA,133157.00,4811.808648,N,00300.924243,W,5,05,8.9,172.142,M,0.000,M,1.0,0001*6E
150.392,$GPVTG,231.8,T,,,1.69,N,3.13,K,D*42
150.429,$GPZDA,133157.00,19,10,2016,+00,00*43
150.469,$GPRMC,133157.13,A,4811.80865,N,00300.92424,W,1.7,231.8,191016,,,D*6C
150.510,$GPGST,133157.00,,,,,1.12,2.43,1.17*65
151.389,$GPGGA,133158.00,4811.808413,N,00300.924841,W,5,05,8.9,171.980,M,0.000,M,1.0,0001*60
151.393,$GPVTG,231.9,T,,,1.71,N,3.16,K,D*4F
151.429,$GPZDA,133158.00,19,10,2016,+00,00*4C
151.469,$GPRMC,133158.13,A,4811.80841,N,00300.92484,W,1.7,231.9,191016,,,D*6E
151.509,$GPGST,133158.00,,,,,1.11,2.42,1.16*69
152.389,$GPGGA,133159.00,4811.808128,N,00300.925475,W,5,06,2.9,172.008,M,0.000,M,1.0,0001*65
152.393,$GPVTG,232.8,T,,,1.72,N,3.18,K,D*40
152.429,$GPZDA,133159.00,19,10,2016,+00,00*4D
152.469,$GPRMC,133159.13,A,4811.80813,N,00300.92547,W,1.7,232.8,191016,,,D*64
152.509,$GPGST,133159.00,,,,,1.08,2.41,1.10*65
153.389,$GPGGA,133200.00,4811.807844,N,00300.926114,W,5,06,2.9,171.967,M,0.000,M,1.0,0001*64
153.393,$GPVTG,234.0,T,,,1.72,N,3.18,K,D*4E
153.429,$GPZDA,133200.00,19,10,2016,+00,00*42
153.469,$GPRMC,133200.13,A,4811.80784,N,00300.92611,W,1.7,234.0,191016,,,D*64
153.509,$GPGST,133200.00,,,,,1.08,2.40,1.10*6B
154.389,$GPGGA,133201.00,4811.807736,N,00300.926708,W,5,06,2.9,171.808,M,0.000,M,1.0,0001*6C
154.393,$GPVTG,235.4,T,,,1.72,N,3.18,K,D*4B
154.429,$GPZDA,133201.00,19,10,2016,+00,00*43
154.469,$GPRMC,133201.13,A,4811.80774,N,00300.92671,W,1.7,235.4,191016,,,D*69
154.509,$GPGST,133201.00,,,,,1.07,2.40,1.09*6D
155.390,$GPGGA,133202.00,4811.807473,N,00300.927382,W,5,06,2.9,171.969,M,0.000,M,1.0,0001*6C
155.393,$GPVTG,236.8,T,,,1.71,N,3.17,K,D*48
155.430,$GPZDA,133202.00,19,10,2016,+00,00*40
155.470,$GPRMC,133202.13,A,4811.80747,N,00300.92738,W,1.7,236.8,191016,,,D*69
155.510,$GPGST,133202.00,,,,,1.07,2.39,1.08*61
156.390,$GPGGA,133203.00,4811.807253,N,00300.928061,W,5,06,2.9,171.990,M,0.000,M,1.0,0001*6E
156.393,$GPVTG,238.4,T,,,1.71,N,3.16,K,D*4B
156.430,$GPZDA,133203.00,19,10,2016,+00,00*41
156.470,$GPRMC,133203.13,A,4811.80725,N,00300.92806,W,1.7,238.4,191016,,,D*6C
156.510,$GPGST,133203.00,,,,,1.06,2.38,1.08*60
157.390,$GPGGA,133204.00,4811.807064,N,00300.928741,W,5,06,2.9,172.016,M,0.000,M,1.0,0001*6E
157.393,$GPVTG,240.0,T,,,1.71,N,3.16,K,D*40
157.430,$GPZDA,133204.00,19,10,2016,+00,00*46
157.470,$GPRMC,133204.13,A,4811.80706,N,00300.92874,W,1.7,240.0,191016,,,D*64
157.510,$GPGST,133204.00,,,,,1.06,2.37,1.07*67
158.390,$GPGGA,133205.00,4811.806848,N,00300.929425,W,5,06,2.9,172.216,M,0.000,M,1.0,0001*6A
158.393,$GPVTG,241.8,T,,,1.70,N,3.14,K,D*4A
158.430,$GPZDA,133205.00,19,10,2016,+00,00*47
158.470,$GPRMC,133205.13,A,4811.80685,N,00300.92943,W,1.7,241.8,191016,,,D*63
158.510,$GPGST,133205.00,,,,,1.05,2.36,1.07*64
159.390,$GPGGA,133206.00,4811.806872,N,00300.930038,W,5,06,2.9,171.931,M,0.000,M,1.0,0001*6D
159.393,$GPVTG,243.9,T,,,1.67,N,3.10,K,D*4B
159.430,$GPZDA,133206.00,19,10,2016,+00,00*44
159.470,$GPRMC,133206.13,A,4811.80687,N,00300.93004,W,1.7,243.9,191016,,,D*6A
159.510,$GPGST,133206.00,,,,,1.05,2.35,1.06*65
160.390,$GPGGA,133207.00,4811.806777,N,00300.930602,W,5,06,2.9,172.079,M,0.000,M,1.0,0001*6F
160.393,$GPVTG,245.9,T,,,1.63,N,3.03,K,D*4B
160.430,$GPZDA,133207.00,19,10,2016,+00,00*45
160.470,$GPRMC,133207.13,A,4811.80678,N,00300.93060,W,1.6,245.9,191016,,,D*6E
160.510,$GPGST,133207.00,,,,,1.04,2.34,1.05*67
161.390,$GPGGA,133208.00,4811.806625,N,00300.931175,W,5,06,2.9,172.275,M,0.000,M,1.0,0001*6E
161.393,$GPVTG,247.8,T,,,1.58,N,2.92,K,D*49
161.430,$GPZDA,133208.00,19,10,2016,+00,00*4A
161.470,$GPRMC,133208.13,A,4811.80663,N,00300.93118,W,1.6,247.8,191016,,,D*66
161.510,$GPGST,133208.00,,,,,1.03,2.34,1.05*6F
162.389,$GPGGA,133209.00,4811.806681,N,00300.931605,W,5,06,2.9,172.266,M,0.000,M,1.0,0001*63
162.392,$GPVTG,249.8,T,,,1.51,N,2.80,K,D*4D
162.430,$GPZDA,133209.00,19,10,2016,+00,00*4B
162.470,$GPRMC,133209.13,A,4811.80668,N,00300.93161,W,1.5,249.8,191016,,,D*6F
162.510,$GPGST,133209.00,,,,,1.03,2.33,1.04*68
163.389,$GPGGA,133210.00,4811.806604,N,00300.932077,W,5,06,2.9,172.285,M,0.000,M,1.0,0001*6B
163.392,$GPVTG,251.7,T,,,1.44,N,2.66,K,D*47
163.430,$GPZDA,133210.00,19,10,2016,+00,00*43
163.470,$GPRMC,133210.13,A,4811.80660,N,00300.93208,W,1.4,251.7,191016,,,D*64
163.510,$GPGST,133210.00,,,,,1.03,2.32,1.04*61
164.389,$GPGGA,133211.00,4811.806726,N,00300.932403,W,5,06,2.9,172.166,M,0.000,M,1.0,0001*62
164.392,$GPVTG,253.3,T,,,1.36,N,2.52,K,D*43
164.430,$GPZDA,133211.00,19,10,2016,+00,00*42
164.470,$GPRMC,133211.13,A,4811.80673,N,00300.93240,W,1.4,253.3,191016,,,D*6D
164.510,$GPGST,133211.00,,,,,1.02,2.31,1.03*65
165.389,$GPGGA,133212.00,4811.806670,N,00300.932781,W,5,06,2.9,172.238,M,0.000,M,1.0,0001*62
165.392,$GPVTG,255.0,T,,,1.28,N,2.38,K,D*45
165.430,$GPZDA,133212.00,19,10,2016,+00,00*41
165.470,$GPRMC,133212.13,A,4811.80667,N,00300.93278,W,1.3,255.0,191016,,,D*62
165.510,$GPGST,133212.00,,,,,1.01,2.29,1.02*6D
166.389,$GPGGA,133213.00,4811.806778,N,00300.933148,W,5,06,2.9,172.025,M,0.000,M,1.0,0001*66
166.392,$GPVTG,256.9,T,,,1.19,N,2.21,K,D*45
166.430,$GPZDA,133213.00,19,10,2016,+00,00*40
166.470,$GPRMC,133213.13,A,4811.80678,N,00300.93315,W,1.2,256.9,191016,,,D*6C
166.510,$GPGST,133213.00,,,,,1.01,2.29,1.02*6C
167.389,$GPGGA,133214.00,4811.807064,N,00300.934664,W,5,06,2.9,171.636,M,0.000,M,1.0,0001*63
167.392,$GPVTG,258.4,T,,,1.12,N,2.07,K,D*49
167.430,$GPZDA,133214.00,19,10,2016,+00,00*47
167.470,$GPRMC,133214.13,A,4811.80706,N,00300.93466,W,1.1,258.4,191016,,,D*60
167.510,$GPGST,133214.00,,,,,1.01,2.29,1.02*6B
168.389,$GPGGA,133215.00,4811.807063,N,00300.934656,W,5,07,2.6,171.676,M,0.000,M,1.0,0001*6E
168.392,$GPVTG,259.8,T,,,1.04,N,1.92,K,D*4C
168.430,$GPZDA,133215.00,19,10,2016,+00,00*46
168.470,$GPRMC,133215.13,A,4811.80706,N,00300.93466,W,1.0,259.8,191016,,,D*6D
168.510,$GPGST,133215.00,,,,,1.01,2.29,1.02*6A
169.389,$GPGGA,133216.00,4811.806939,N,00300.935004,W,5,07,2.6,171.818,M,0.000,M,1.0,0001*6C
169.393,$GPVTG,261.0,T,,,0.96,N,1.78,K,D*41
169.429,$GPZDA,133216.00,19,10,2016,+00,00*45
169.470,$GPRMC,133216.13,A,4811.80694,N,00300.93500,W,1.0,261.0,191016,,,D*66
169.510,$GPGST,133216.00,,,,,1.01,2.28,1.02*68
170.389,$GPGGA,133217.00,4811.807123,N,00300.936131,W,5,07,2.6,171.120,M,0.000,M,1.0,0001*69
170.393,$GPVTG,261.4,T,,,0.88,N,1.63,K,D*40
170.429,$GPZDA,133217.00,19,10,2016,+00,00*44
170.470,$GPRMC,133217.13,A,4811.80712,N,00300.93613,W,0.9,261.4,191016,,,D*65
170.510,$GPGST,133217.00,,,,,1.01,2.28,1.02*69
171.389,$GPGGA,133218.00,4811.807214,N,00300.936322,W,5,07,2.6,170.964,M,0.000,M,1.0,0001*68
171.393,$GPVTG,261.0,T,,,0.80,N,1.48,K,D*45
171.429,$GPZDA,133218.00,19,10,2016,+00,00*4B
171.470,$GPRMC,133218.13,A,4811.80721,N,00300.93632,W,0.8,261.0,191016,,,D*6C
171.510,$GPGST,133218.00,,,,,1.01,2.28,1.02*66
172.390,$GPGGA,133219.00,4811.807277,N,00300.936917,W,5,07,2.6,170.937,M,0.000,M,1.0,0001*66
172.393,$GPVTG,260.0,T,,,0.72,N,1.33,K,D*45
172.430,$GPZDA,133219.00,19,10,2016,+00,00*4A
172.471,$GPRMC,133219.13,A,4811.80728,N,00300.93692,W,0.7,260.0,191016,,,D*60
172.511,$GPGST,133219.00,,,,,1.01,2.28,1.02*67
173.390,$GPGGA,133220.00,4811.807312,N,00300.937192,W,5,07,2.6,170.812,M,0.000,M,1.0,0001*6C
173.393,$GPVTG,258.0,T,,,0.64,N,1.18,K,D*40
173.431,$GPZDA,133220.00,19,10,2016,+00,00*40
173.471,$GPRMC,133220.13,A,4811.80731,N,00300.93719,W,0.6,258.0,191016,,,D*6A
173.511,$GPGST,133220.00,,,,,1.01,2.28,1.02*6D
174.390,$GPGGA,133221.00,4811.807105,N,00300.937098,W,5,07,2.6,170.961,M,0.000,M,1.0,0001*67
174.393,$GPVTG,254.2,T,,,0.57,N,1.05,K,D*42
174.430,$GPZDA,133221.00,19,10,2016,+00,00*41
174.470,$GPRMC,133221.13,A,4811.80710,N,00300.93710,W,0.6,254.2,191016,,,D*6F
174.511,$GPGST,133221.00,,,,,1.01,2.27,1.01*60
175.390,$GPGGA,133222.00,4811.807051,N,00300.937268,W,5,07,2.6,170.641,M,0.000,M,1.0,0001*64
175.393,$GPVTG,249.8,T,,,0.51,N,0.94,K,D*4B
175.430,$GPZDA,133222.00,19,10,2016,+00,00*42
175.470,$GPRMC,133222.13,A,4811.80705,N,00300.93727,W,0.5,249.8,191016,,,D*69
175.511,$GPGST,133222.00,,,,,1.01,2.27,1.01*63
176.390,$GPGGA,133223.00,4811.807002,N,00300.936926,W,5,07,2.6,170.727,M,0.000,M,1.0,0001*62
176.393,$GPVTG,245.1,T,,,0.45,N,0.84,K,D*4A
176.431,$GPZDA,133223.00,19,10,2016,+00,00*43
176.471,$GPRMC,133223.13,A,4811.80700,N,00300.93693,W,0.5,245.1,191016,,,D*66
176.511,$GPGST,133223.00,,,,,1.01,2.27,1.01*62
177.390,$GPGGA,133224.00,4811.806834,N,00300.936989,W,5,07,2.6,170.750,M,0.000,M,1.0,0001*6C
177.393,$GPVTG,240.2,T,,,0.40,N,0.75,K,D*47
177.430,$GPZDA,133224.00,19,10,2016,+00,00*44
177.470,$GPRMC,133224.13,A,4811.80683,N,00300.93699,W,0.4,240.2,191016,,,D*66
177.511,$GPGST,133224.00,,,,,1.00,2.27,1.01*64
178.390,$GPGGA,133225.00,4811.806866,N,00300.936591,W,5,07,2.6,170.675,M,0.000,M,1.0,0001*69
178.393,$GPVTG,234.6,T,,,0.36,N,0.66,K,D*43
178.430,$GPZDA,133225.00,19,10,2016,+00,00*45
178.470,$GPRMC,133225.13,A,4811.80687,N,00300.93659,W,0.4,234.6,191016,,,D*68
178.510,$GPGST,133225.00,,,,,1.00,2.27,1.01*65
179.390,$GPGGA,133226.00,4811.806771,N,00300.936806,W,5,07,2.6,170.834,M,0.000,M,1.0,0001*6B
179.393,$GPVTG,229.0,T,,,0.33,N,0.61,K,D*4B
179.430,$GPZDA,133226.00,19,10,2016,+00,00*46
179.470,$GPRMC,133226.13,A,4811.80677,N,00300.93681,W,0.3,229.0,191016,,,D*6C
179.510,$GPGST,133226.00,,,,,1.00,2.27,1.01*66
180.390,$GPGGA,133227.00,4811.806690,N,00300.937032,W,5,07,2.6,170.772,M,0.000,M,1.0,0001*67
180.393,$GPVTG,223.0,T,,,0.31,N,0.57,K,D*46
180.430,$GPZDA,133227.00,19,10,2016,+00,00*47
180.470,$GPRMC,133227.13,A,4811.80669,N,00300.93703,W,0.3,223.0,191016,,,D*63
180.510,$GPGST,133227.00,,,,,1.00,2.27,1.01*67
181.390,$GPGGA,133228.00,4811.806774,N,00300.937273,W,5,07,2.6,170.596,M,0.000,M,1.0,0001*6C
181.393,$GPVTG,217.4,T,,,0.29,N,0.54,K,D*4F
181.430,$GPZDA,133228.00,19,10,2016,+00,00*48
181.470,$GPRMC,133228.13,A,4811.80677,N,00300.93727,W,0.3,217.4,191016,,,D*66
181.510,$GPGST,133228.00,,,,,1.00,2.26,1.01*69
182.390,$GPGGA,133229.00,4811.806502,N,00300.937216,W,5,07,2.6,170.619,M,0.000,M,1.0,0001*69
182.393,$GPVTG,212.5,T,,,0.28,N,0.52,K,D*4C
182.430,$GPZDA,133229.00,19,10,2016,+00,00*49
182.470,$GPRMC,133229.13,A,4811.80650,N,00300.93722,W,0.3,212.5,191016,,,D*63
182.510,$GPGST,133229.00,,,,,1.00,2.26,1.01*68
183.390,$GPGGA,133230.00,4811.806448,N,00300.937008,W,5,07,2.6,170.573,M,0.000,M,1.0,0001*6C
183.393,$GPVTG,207.7,T,,,0.27,N,0.50,K,D*47
183.430,$GPZDA,133230.00,19,10,2016,+00,00*41
183.470,$GPRMC,133230.13,A,4811.80645,N,00300.93701,W,0.3,207.7,191016,,,D*68
183.510,$GPGST,133230.00,,,,,1.00,2.26,1.01*60
184.390,$GPGGA,133231.00,4811.806446,N,00300.937628,W,5,07,2.6,170.262,M,0.000,M,1.0,0001*60
184.393,$GPVTG,203.5,T,,,0.28,N,0.51,K,D*4F
184.430,$GPZDA,133231.00,19,10,2016,+00,00*40
184.470,$GPRMC,133231.13,A,4811.80645,N,00300.93763,W,0.3,203.5,191016,,,D*6B
184.510,$GPGST,133231.00,,,,,1.00,2.26,1.01*61
185.390,$GPGGA,133232.00,4811.806320,N,00300.937534,W,5,07,2.6,170.221,M,0.000,M,1.0,0001*6D
185.393,$GPVTG,200.1,T,,,0.27,N,0.50,K,D*46
185.430,$GPZDA,133232.00,19,10,2016,+00,00*43
185.470,$GPRMC,133232.13,A,4811.80632,N,00300.93753,W,0.3,200.1,191016,,,D*6C
185.510,$GPGST,133232.00,,,,,1.00,2.26,1.01*62
186.390,$GPGGA,133233.00,4811.806173,N,00300.937334,W,5,07,2.6,170.413,M,0.000,M,1.0,0001*69
186.393,$GPVTG,197.1,T,,,0.27,N,0.50,K,D*4B
186.430,$GPZDA,133233.00,19,10,2016,+00,00*42
186.470,$GPRMC,133233.13,A,4811.80617,N,00300.93733,W,0.3,197.1,191016,,,D*61
186.510,$GPGST,133233.00,,,,,1.00,2.26,1.01*63
187.390,$GPGGA,133234.00,4811.806166,N,00300.937410,W,5,07,2.6,170.274,M,0.000,M,1.0,0001*6C
187.394,$GPVTG,194.8,T,,,0.27,N,0.51,K,D*40
187.430,$GPZDA,133234.00,19,10,2016,+00,00*45
187.470,$GPRMC,133234.13,A,4811.80617,N,00300.93741,W,0.3,194.8,191016,,,D*69
187.510,$GPGST,133234.00,,,,,1.00,2.26,1.01*64
188.390,$GPGGA,133235.00,4811.806032,N,00300.937346,W,5,07,2.6,170.192,M,0.000,M,1.0,0001*62
188.394,$GPVTG,190.4,T,,,0.27,N,0.50,K,D*49
188.430,$GPZDA,133235.00,19,10,2016,+00,00*44
188.470,$GPRMC,133235.13,A,4811.80603,N,00300.93735,W,0.3,190.4,191016,,,D*66
188.510,$GPGST,133235.00,,,,,1.00,2.25,1.00*67
189.389,$GPGGA,133236.00,4811.805996,N,00300.937389,W,5,07,2.7,170.279,M,0.000,M,1.0,0001*61
189.393,$GPVTG,188.3,T,,,0.27,N,0.50,K,D*47
189.430,$GPZDA,133236.00,19,10,2016,+00,00*47
189.470,$GPRMC,133236.13,A,4811.80600,N,00300.93739,W,0.3,188.3,191016,,,D*64
189.510,$GPGST,133236.00,,,,,0.99,2.25,1.00*65
190.389,$GPGGA,133237.00,4811.805808,N,00300.935855,W,5,07,2.7,170.815,M,0.000,M,1.0,0001*6E
190.393,$GPVTG,186.1,T,,,0.27,N,0.50,K,D*4B
190.430,$GPZDA,133237.00,19,10,2016,+00,00*46
190.470,$GPRMC,133237.13,A,4811.80581,N,00300.93585,W,0.3,186.1,191016,,,D*66
190.510,$GPGST,133237.00,,,,,0.99,2.25,1.00*64
191.390,$GPGGA,133238.00,4811.805313,N,00300.933981,W,5,07,2.7,171.860,M,0.000,M,1.0,0001*6D
191.393,$GPVTG,182.4,T,,,0.27,N,0.49,K,D*42
191.431,$GPZDA,133238.00,19,10,2016,+00,00*49
191.471,$GPRMC,133238.13,A,4811.80531,N,00300.93398,W,0.3,182.4,191016,,,D*69
191.511,$GPGST,133238.00,,,,,0.99,2.25,1.00*6B
192.390,$GPGGA,133239.00,4811.805265,N,00300.933408,W,5,07,2.7,172.026,M,0.000,M,1.0,0001*69
192.393,$GPVTG,179.7,T,,,0.27,N,0.50,K,D*4D
192.431,$GPZDA,133239.00,19,10,2016,+00,00*48
192.471,$GPRMC,133239.13,A,4811.80527,N,00300.93341,W,0.3,179.7,191016,,,D*6C
192.511,$GPGST,133239.00,,,,,0.99,2.25,1.00*6A
193.390,$GPGGA,133240.00,4811.805180,N,00300.933574,W,5,07,2.7,172.013,M,0.000,M,1.0,0001*63
193.393,$GPVTG,177.0,T,,,0.27,N,0.50,K,D*44
193.431,$GPZDA,133240.00,19,10,2016,+00,00*46
193.471,$GPRMC,133240.13,A,4811.80518,N,00300.93357,W,0.3,177.0,191016,,,D*60
193.511,$GPGST,133240.00,,,,,0.99,2.25,1.00*64
194.390,$GPGGA,133241.00,4811.805330,N,00300.933306,W,5,06,2.9,171.890,M,0.000,M,1.0,0001*67
194.393,$GPVTG,174.7,T,,,0.27,N,0.50,K,D*40
194.431,$GPZDA,133241.00,19,10,2016,+00,00*47
194.471,$GPRMC,133241.13,A,4811.80533,N,00300.93331,W,0.3,174.7,191016,,,D*6C
194.511,$GPGST,133241.00,,,,,0.99,2.25,1.00*65
195.390,$GPGGA,133242.00,4811.805286,N,00300.933244,W,5,06,2.9,171.794,M,0.000,M,1.0,0001*64
195.393,$GPVTG,173.4,T,,,0.28,N,0.51,K,D*4A
195.431,$GPZDA,133242.00,19,10,2016,+00,00*44
195.471,$GPRMC,133242.13,A,4811.80529,N,00300.93324,W,0.3,173.4,191016,,,D*64
195.511,$GPGST,133242.00,,,,,0.99,2.25,1.00*66
196.390,$GPGGA,133243.00,4811.805193,N,00300.933205,W,5,05,2.9,171.786,M,0.000,M,1.0,0001*67
196.393,$GPVTG,173.1,T,,,0.28,N,0.52,K,D*4C
196.431,$GPZDA,133243.00,19,10,2016,+00,00*45
196.471,$GPRMC,133243.13,A,4811.80519,N,00300.93321,W,0.3,173.1,191016,,,D*66
196.511,$GPGST,133243.00,,,,,0.99,2.25,1.00*67
197.390,$GPGGA,133244.00,4811.805101,N,00300.933175,W,5,05,2.9,171.799,M,0.000,M,1.0,0001*61
197.393,$GPVTG,170.9,T,,,0.29,N,0.54,K,D*40
