0.664,$GPRMC,094955.13,A,4811.83416,N,00300.93421,W,1.9,50.1,201016,,,A*78
0.704,$GPGST,094955.00,,,,,0.60,0.39,0.96*60
1.543,$GPGGA,094956.00,4811.834597,N,00300.933752,W,1,09,1.0,166.889,M,0.000,M,,*4B
1.546,$GPVTG,48.7,T,,,1.91,N,3.54,K,A*70
1.583,$GPZDA,094956.00,20,10,2016,+00,00*4C
1.623,$GPRMC,094956.13,A,4811.83460,N,00300.93375,W,1.9,48.7,201016,,,A*73
1.663,$GPGST,094956.00,,,,,0.54,0.35,0.85*6A
2.543,$GPGGA,094957.00,4811.835036,N,00300.933299,W,1,09,1.0,166.934,M,0.000,M,,*40
2.546,$GPVTG,46.5,T,,,1.91,N,3.54,K,A*7C
2.583,$GPZDA,094957.00,20,10,2016,+00,00*4D
2.623,$GPRMC,094957.13,A,4811.83504,N,00300.93330,W,1.9,46.5,201016,,,A*7C
2.663,$GPGST,094957.00,,,,,0.53,0.34,0.84*6C
3.543,$GPGGA,094958.00,4811.835501,N,00300.932850,W,1,09,1.0,166.833,M,0.000,M,,*46
3.546,$GPVTG,44.5,T,,,1.91,N,3.54,K,A*7E
3.583,$GPZDA,094958.00,20,10,2016,+00,00*42
3.623,$GPRMC,094958.13,A,4811.83550,N,00300.93285,W,1.9,44.5,201016,,,A*7F
3.663,$GPGST,094958.00,,,,,0.53,0.34,0.85*62
4.543,$GPGGA,094959.00,4811.835973,N,00300.932427,W,1,09,1.0,166.907,M,0.000,M,,*44
4.546,$GPVTG,42.3,T,,,1.91,N,3.54,K,A*7E
4.583,$GPZDA,094959.00,20,10,2016,+00,00*43
4.623,$GPRMC,094959.13,A,4811.83597,N,00300.93243,W,1.9,42.3,201016,,,A*7F
4.663,$GPGST,094959.00,,,,,0.54,0.35,0.85*65
5.543,$GPGGA,095000.00,4811.836433,N,00300.932080,W,1,09,1.0,166.929,M,0.000,M,,*4F
5.546,$GPVTG,40.3,T,,,1.90,N,3.52,K,A*7B
5.583,$GPZDA,095000.00,20,10,2016,+00,00*47
5.623,$GPRMC,095000.13,A,4811.83643,N,00300.93208,W,1.9,40.3,201016,,,A*7C
5.663,$GPGST,095000.00,,,,,0.54,0.35,0.86*62
6.543,$GPGGA,095001.00,4811.836888,N,00300.931671,W,1,09,1.0,167.155,M,0.000,M,,*4B
6.546,$GPVTG,38.7,T,,,1.90,N,3.52,K,A*70
6.583,$GPZDA,095001.00,20,10,2016,+00,00*46
6.623,$GPRMC,095001.13,A,4811.83689,N,00300.93167,W,1.9,38.7,201016,,,A*7A
6.663,$GPGST,095001.00,,,,,0.57,0.37,0.88*6C
7.543,$GPGGA,095002.00,4811.837386,N,00300.931339,W,1,09,1.0,167.127,M,0.000,M,,*40
7.546,$GPVTG,36.4,T,,,1.90,N,3.52,K,A*7D
7.583,$GPZDA,095002.00,20,10,2016,+00,00*45
7.624,$GPRMC,095002.13,A,4811.83739,N,00300.93134,W,1.9,36.4,201016,,,A*78
7.664,$GPGST,095002.00,,,,,0.56,0.36,0.87*60
8.543,$GPGGA,095003.00,4811.837852,N,00300.931049,W,1,09,1.0,167.133,M,0.000,M,,*42
8.546,$GPVTG,34.4,T,,,1.89,N,3.49,K,A*7D
8.583,$GPZDA,095003.00,20,10,2016,+00,00*44
8.623,$GPRMC,095003.13,A,4811.83785,N,00300.93105,W,1.9,34.4,201016,,,A*7E
8.663,$GPGST,095003.00,,,,,0.56,0.36,0.86*60
9.543,$GPGGA,095004.00,4811.838359,N,00300.930779,W,1,09,1.0,167.032,M,0.000,M,,*4F
9.546,$GPVTG,32.1,T,,,1.88,N,3.48,K,A*7E
9.583,$GPZDA,095004.00,20,10,2016,+00,00*43
9.623,$GPRMC,095004.13,A,4811.83836,N,00300.93078,W,1.9,32.1,201016,,,A*76
9.663,$GPGST,095004.00,,,,,0.55,0.35,0.85*64
10.543,$GPGGA,095005.00,4811.838832,N,00300.930527,W,1,09,1.0,167.028,M,0.000,M,,*4A
10.546,$GPVTG,30.1,T,,,1.87,N,3.46,K,A*7D
10.583,$GPZDA,095005.00,20,10,2016,+00,00*42
10.623,$GPRMC,095005.13,A,4811.83883,N,00300.93053,W,1.9,30.1,201016,,,A*72
10.663,$GPGST,095005.00,,,,,0.54,0.35,0.83*62
11.543,$GPGGA,095006.00,4811.839340,N,00300.930298,W,1,09,1.0,167.045,M,0.000,M,,*4E
11.546,$GPVTG,28.2,T,,,1.86,N,3.45,K,A*75
11.583,$GPZDA,095006.00,20,10,2016,+00,00*41
11.623,$GPRMC,095006.13,A,4811.83934,N,00300.93030,W,1.9,28.2,201016,,,A*73
11.663,$GPGST,095006.00,,,,,0.55,0.35,0.85*66
12.542,$GPGGA,095007.00,4811.839823,N,00300.930125,W,1,09,1.0,167.057,M,0.000,M,,*47
12.546,$GPVTG,26.2,T,,,1.85,N,3.43,K,A*7E
12.583,$GPZDA,095007.00,20,10,2016,+00,00*40
12.623,$GPRMC,095007.13,A,4811.83982,N,00300.93012,W,1.9,26.2,201016,,,A*71
12.663,$GPGST,095007.00,,,,,0.56,0.36,0.86*64
13.542,$GPGGA,095008.00,4811.840331,N,00300.929954,W,1,09,1.0,167.008,M,0.000,M,,*42
13.546,$GPVTG,24.0,T,,,1.85,N,3.42,K,A*7F
13.583,$GPZDA,095008.00,20,10,2016,+00,00*4F
13.623,$GPRMC,095008.13,A,4811.84033,N,00300.92995,W,1.8,24.0,201016,,,A*7C
13.663,$GPGST,095008.00,,,,,0.56,0.36,0.86*6B
14.543,$GPGGA,095009.00,4811.840834,N,00300.929791,W,1,09,1.0,167.095,M,0.000,M,,*4E
14.546,$GPVTG,22.2,T,,,1.84,N,3.41,K,A*79
14.584,$GPZDA,095009.00,20,10,2016,+00,00*4E
14.624,$GPRMC,095009.13,A,4811.84083,N,00300.92979,W,1.8,22.2,201016,,,A*70
14.664,$GPGST,095009.00,,,,,0.55,0.35,0.85*69
15.543,$GPGGA,095010.00,4811.841339,N,00300.929687,W,1,09,1.0,167.085,M,0.000,M,,*46
15.546,$GPVTG,19.9,T,,,1.84,N,3.40,K,A*7B
15.584,$GPZDA,095010.00,20,10,2016,+00,00*46
15.624,$GPRMC,095010.13,A,4811.84134,N,00300.92969,W,1.8,19.9,201016,,,A*77
15.664,$GPGST,095010.00,,,,,0.55,0.35,0.84*60
16.543,$GPGGA,095011.00,4811.841850,N,00300.929586,W,1,09,1.0,167.000,M,0.000,M,,*4C
16.546,$GPVTG,18.0,T,,,1.83,N,3.39,K,A*7A
16.584,$GPZDA,095011.00,20,10,2016,+00,00*47
16.624,$GPRMC,095011.13,A,4811.84185,N,00300.92959,W,1.8,18.0,201016,,,A*77
16.664,$GPGST,095011.00,,,,,0.54,0.34,0.82*67
17.543,$GPGGA,095012.00,4811.842379,N,00300.929494,W,1,09,1.0,166.973,M,0.000,M,,*42
17.546,$GPVTG,16.3,T,,,1.84,N,3.40,K,A*7E
17.584,$GPZDA,095012.00,20,10,2016,+00,00*44
17.624,$GPRMC,095012.13,A,4811.84238,N,00300.92949,W,1.8,16.3,201016,,,A*7D
17.664,$GPGST,095012.00,,,,,0.54,0.34,0.82*64
18.543,$GPGGA,095013.00,4811.842889,N,00300.929444,W,1,09,1.0,166.990,M,0.000,M,,*47
18.546,$GPVTG,14.3,T,,,1.83,N,3.40,K,A*7B
18.584,$GPZDA,095013.00,20,10,2016,+00,00*45
18.624,$GPRMC,095013.13,A,4811.84289,N,00300.92944,W,1.8,14.3,201016,,,A*79
18.664,$GPGST,095013.00,,,,,0.54,0.34,0.82*65
19.543,þA
19.543,çÿ$GPGGA,095014.00,4811.843421,N,00300.929443,W,1,09,1.0,167.052,M,0.000,M,,*4E
19.584,$GPVTG,12.4,T,,,1.84,N,3.40,K,A*7D
19.624,$GPZDA,095014.00,20,10,2016,+00,00*42
19.664,$GPRMC,095014.13,A,4811.84342,N,00300.92944,W,1.8,12.4,201016,,,A*79
19.704,$GPGST,095014.00,,,,,0.55,0.35,0.84*64
20.543,$GPGGA,095015.00,4811.843922,N,00300.929419,W,1,09,1.0,167.151,M,0.000,M,,*4C
20.546,$GPVTG,10.8,T,,,1.84,N,3.40,K,A*73
20.583,$GPZDA,095015.00,20,10,2016,+00,00*43
20.624,$GPRMC,095015.13,A,4811.84392,N,00300.92942,W,1.8,10.8,201016,,,A*7D
20.664,$GPGST,095015.00,,,,,0.54,0.35,0.83*63
21.543,$GPGGA,095016.00,4811.844432,N,00300.929431,W,1,09,1.0,167.137,M,0.000,M,,*4E
21.546,$GPVTG,9.1,T,,,1.82,N,3.38,K,A*4B
21.583,$GPZDA,095016.00,20,10,2016,+00,00*40
21.624,$GPRMC,095016.13,A,4811.84443,N,00300.92943,W,1.8,9.1,201016,,,A*65
21.664,$GPGST,095016.00,,,,,0.53,0.34,0.82*67
22.543,$GPGGA,095017.00,4811.844912,N,00300.929435,W,1,09,1.0,167.123,M,0.000,M,,*41
22.546,$GPVTG,7.6,T,,,1.80,N,3.34,K,A*4C
22.583,$GPZDA,095017.00,20,10,2016,+00,00*41
22.623,$GPRMC,095017.13,A,4811.84491,N,00300.92943,W,1.8,7.6,201016,,,A*62
22.664,$GPGST,095017.00,,,,,0.54,0.34,0.82*61
23.543,$GPGGA,095018.00,4811.845313,N,00300.929436,W,1,09,1.0,167.075,M,0.000,M,,*45
23.546,$GPVTG,6.6,T,,,1.76,N,3.25,K,A*44
23.583,$GPZDA,095018.00,20,10,2016,+00,00*4E
23.624,$GPRMC,095018.13,A,4811.84531,N,00300.92944,W,1.8,6.6,201016,,,A*60
23.664,$GPGST,095018.00,,,,,0.54,0.35,0.83*6E
24.543,$GPGGA,095019.00,4811.845720,N,00300.929459,W,1,09,1.0,167.135,M,0.000,M,,*4C
24.546,$GPVTG,5.5,T,,,1.71,N,3.16,K,A*43
24.584,$GPZDA,095019.00,20,10,2016,+00,00*4F
24.624,$GPRMC,095019.13,A,4811.84572,N,00300.92946,W,1.7,5.5,201016,,,A*6B
24.665,$GPGST,095019.00,,,,,0.53,0.34,0.81*6B
25.543,$GPGGA,095020.00,4811.846081,N,00300.929476,W,1,09,1.0,167.112,M,0.000,M,,*41
25.546,$GPVTG,4.5,T,,,1.65,N,3.06,K,A*46
25.583,$GPZDA,095020.00,20,10,2016,+00,00*45
25.623,$GPRMC,095020.13,A,4811.84608,N,00300.92948,W,1.7,4.5,201016,,,A*60
25.664,$GPGST,095020.00,,,,,0.54,0.34,0.82*65
26.543,$GPGGA,095021.00,4811.846467,N,00300.929492,W,1,09,1.0,167.148,M,0.000,M,,*49
26.546,$GPVTG,3.6,T,,,1.61,N,2.97,K,A*4F
26.583,$GPZDA,095021.00,20,10,2016,+00,00*44
26.623,$GPRMC,095021.13,A,4811.84647,N,00300.92949,W,1.6,3.6,201016,,,A*6E
26.664,$GPGST,095021.00,,,,,0.54,0.35,0.83*64
27.543,$GPGGA,095022.00,4811.846799,N,00300.929542,W,1,09,1.0,167.179,M,0.000,M,,*46
27.546,$GPVTG,2.7,T,,,1.54,N,2.86,K,A*49
27.583,$GPZDA,095022.00,20,10,2016,+00,00*47
27.623,$GPRMC,095022.13,A,4811.84680,N,00300.92954,W,1.5,2.7,201016,,,A*69
27.663,$GPGST,095022.00,,,,,0.54,0.35,0.83*67
28.543,$GPGGA,095023.00,4811.847109,N,00300.929575,W,1,09,1.0,167.172,M,0.000,M,,*46
28.546,$GPVTG,1.9,T,,,1.48,N,2.75,K,A*45
28.583,$GPZDA,095023.00,20,10,2016,+00,00*46
28.623,$GPRMC,095023.13,A,4811.84711,N,00300.92958,W,1.5,1.9,201016,,,A*60
28.663,$GPGST,095023.00,,,,,0.53,0.34,0.82*61
29.543,$GPGGA,095024.00,4811.847402,N,00300.929619,W,1,09,1.0,167.121,M,0.000,M,,*40
29.546,$GPVTG,1.0,T,,,1.42,N,2.62,K,A*40
29.583,$GPZDA,095024.00,20,10,2016,+00,00*41
29.623,$GPRMC,095024.13,A,4811.84740,N,00300.92962,W,1.4,1.0,201016,,,A*62
29.663,$GPGST,095024.00,,,,,0.53,0.34,0.82*66
30.543,$GPGGA,095025.00,4811.847689,N,00300.929664,W,1,09,1.0,167.115,M,0.000,M,,*4D
30.546,$GPVTG,0.3,T,,,1.36,N,2.52,K,A*42
30.583,$GPZDA,095025.00,20,10,2016,+00,00*40
30.623,$GPRMC,095025.13,A,4811.84769,N,00300.92966,W,1.4,0.3,201016,,,A*6E
30.663,$GPGST,095025.00,,,,,0.54,0.34,0.82*60
31.544,$GPGGA,095026.00,4811.847969,N,00300.929711,W,1,09,1.0,167.129,M,0.000,M,,*43
31.547,$GPVTG,359.5,T,,,1.30,N,2.41,K,A*4F
31.584,$GPZDA,095026.00,20,10,2016,+00,00*43
31.624,$GPRMC,095026.13,A,4811.84797,N,00300.92971,W,1.3,359.5,201016,,,A*64
31.664,$GPGST,095026.00,,,,,0.53,0.34,0.82*64
32.544,$GPGGA,095027.00,4811.848258,N,00300.929755,W,1,09,1.0,167.112,M,0.000,M,,*4C
32.547,$GPVTG,358.8,T,,,1.26,N,2.33,K,A*41
32.584,$GPZDA,095027.00,20,10,2016,+00,00*42
32.624,$GPRMC,095027.13,A,4811.84826,N,00300.92976,W,1.3,358.8,201016,,,A*6B
32.664,$GPGST,095027.00,,,,,0.53,0.34,0.82*65
33.544,$GPGGA,095028.00,4811.848555,N,00300.929847,W,1,09,1.0,167.100,M,0.000,M,,*46
33.547,$GPVTG,357.4,T,,,1.23,N,2.29,K,A*4C
33.584,$GPZDA,095028.00,20,10,2016,+00,00*4D
33.624,$GPRMC,095028.13,A,4811.84855,N,00300.92985,W,1.2,357.4,201016,,,A*6E
33.664,$GPGST,095028.00,,,,,0.53,0.34,0.82*6A
34.544,$GPGGA,095029.00,4811.848866,N,00300.929946,W,1,09,1.0,167.134,M,0.000,M,,*4D
34.547,$GPVTG,356.1,T,,,1.22,N,2.26,K,A*46
34.584,$GPZDA,095029.00,20,10,2016,+00,00*4C
34.624,$GPRMC,095029.13,A,4811.84887,N,00300.92995,W,1.2,356.1,201016,,,A*65
34.664,$GPGST,095029.00,,,,,0.53,0.34,0.81*68
35.544,$GPGGA,095030.00,4811.849196,N,00300.930067,W,1,09,1.0,167.122,M,0.000,M,,*47
35.547,$GPVTG,354.4,T,,,1.22,N,2.25,K,A*42
35.584,$GPZDA,095030.00,20,10,2016,+00,00*44
35.624,$GPRMC,095030.13,A,4811.84920,N,00300.93007,W,1.2,354.4,201016,,,A*65
35.664,$GPGST,095030.00,,,,,0.53,0.34,0.82*63
36.544,$GPGGA,095031.00,4811.849546,N,00300.930228,W,1,09,1.0,167.161,M,0.000,M,,*41
36.547,$GPVTG,352.8,T,,,1.22,N,2.27,K,A*4A
36.584,$GPZDA,095031.00,20,10,2016,+00,00*45
36.624,$GPRMC,095031.13,A,4811.84955,N,00300.93023,W,1.2,352.8,201016,,,A*6A
36.664,$GPGST,095031.00,,,,,0.54,0.34,0.82*65
37.543,$GPGGA,095032.00,4811.849914,N,00300.930380,W,1,09,1.0,167.155,M,0.000,M,,*4D
37.546,$GPVTG,351.4,T,,,1.25,N,2.31,K,A*45
37.584,$GPZDA,095032.00,20,10,2016,+00,00*46
37.624,$GPRMC,095032.13,A,4811.84991,N,00300.93038,W,1.2,351.4,201016,,,A*64
37.664,$GPGST,095032.00,,,,,0.53,0.34,0.81*62
38.543,$GPGGA,095033.00,4811.850276,N,00300.930549,W,1,09,1.0,167.177,M,0.000,M,,*48
38.546,$GPVTG,350.1,T,,,1.27,N,2.35,K,A*47
38.584,$GPZDA,095033.00,20,10,2016,+00,00*47
38.624,$GPRMC,095033.13,A,4811.85028,N,00300.93055,W,1.3,350.1,201016,,,A*61
38.664,$GPGST,095033.00,,,,,0.53,0.34,0.81*63
39.543,$GPGGA,095034.00,4811.850694,N,00300.930709,W,1,09,1.0,167.163,M,0.000,M,,*44
39.546,$GPVTG,349.1,T,,,1.30,N,2.42,K,A*49
39.584,$GPZDA,095034.00,20,10,2016,+00,00*40
39.624,$GPRMC,095034.13,A,4811.85069,N,00300.93071,W,1.3,349.1,201016,,,A*6D
39.664,$GPGST,095034.00,,,,,0.52,0.33,0.80*63
40.543,$GPGGA,095035.00,4811.851073,N,00300.930900,W,1,09,1.0,167.194,M,0.000,M,,*44
40.546,$GPVTG,347.9,T,,,1.33,N,2.46,K,A*48
40.584,$GPZDA,095035.00,20,10,2016,+00,00*41
40.624,$GPRMC,095035.13,A,4811.85107,N,00300.93090,W,1.3,347.9,201016,,,A*6C
40.664,$GPGST,095035.00,,,,,0.53,0.34,0.81*65
41.543,$GPGGA,095036.00,4811.851460,N,00300.931089,W,1,09,1.0,167.224,M,0.000,M,,*40
41.546,$GPVTG,347.0,T,,,1.35,N,2.50,K,A*40
41.584,$GPZDA,095036.00,20,10,2016,+00,00*42
41.624,$GPRMC,095036.13,A,4811.85146,N,00300.93109,W,1.3,347.0,201016,,,A*62
41.664,$GPGST,095036.00,,,,,0.54,0.34,0.82*62
42.543,$GPGGA,095037.00,4811.851902,N,00300.931282,W,1,09,1.0,167.182,M,0.000,M,,*4E
42.546,$GPVTG,346.3,T,,,1.39,N,2.58,K,A*46
42.584,$GPZDA,095037.00,20,10,2016,+00,00*43
42.624,$GPRMC,095037.13,A,4811.85190,N,00300.93128,W,1.4,346.3,201016,,,A*6E
42.664,$GPGST,095037.00,,,,,0.53,0.34,0.82*64
43.543,þA
43.546,$GPVTG,345.9,T,,,1.44,N,2.66,K,A*48
43.584,$GPZDA,095038.00,20,10,2016,+00,00*4C
43.624,$GPRMC,095038.13,A,4811.85236,N,00300.93148,W,1.4,345.9,201016,,,A*61
43.664,$GPGST,095038.00,,,,,0.54,0.34,0.82*6C
44.543,$GPGGA,095039.00,4811.852779,N,00300.931688,W,1,09,1.0,167.171,M,0.000,M,,*43
44.546,$GPVTG,345.3,T,,,1.47,N,2.71,K,A*47
44.584,$GPZDA,095039.00,20,10,2016,+00,00*4D
44.624,$GPRMC,095039.13,A,4811.85278,N,00300.93169,W,1.5,345.3,201016,,,A*62
44.664,$GPGST,095039.00,,,,,0.54,0.34,0.82*6D
45.543,$GPGGA,095040.00,4811.853218,N,00300.931855,W,1,09,1.0,167.122,M,0.000,M,,*46
45.547,$GPVTG,345.1,T,,,1.49,N,2.75,K,A*4F
45.584,$GPZDA,095040.00,20,10,2016,+00,00*43
45.624,$GPRMC,095040.13,A,4811.85322,N,00300.93186,W,1.5,345.1,201016,,,A*61
45.664,$GPGST,095040.00,,,,,0.54,0.34,0.82*63
46.543,$GPGGA,095041.00,4811.853664,N,00300.932040,W,1,09,1.0,167.101,M,0.000,M,,*46
46.547,$GPVTG,345.0,T,,,1.51,N,2.80,K,A*4D
46.583,$GPZDA,095041.00,20,10,2016,+00,00*42
46.624,$GPRMC,095041.13,A,4811.85366,N,00300.93204,W,1.5,345.0,201016,,,A*68
46.664,$GPGST,095041.00,,,,,0.53,0.34,0.81*66
47.543,$GPGGA,095042.00,4811.854092,N,00300.932268,W,1,09,1.0,167.171,M,0.000,M,,*42
47.547,$GPVTG,344.6,T,,,1.54,N,2.85,K,A*4A
47.583,$GPZDA,095042.00,20,10,2016,+00,00*41
47.624,$GPRMC,095042.13,A,4811.85409,N,00300.93227,W,1.5,344.6,201016,,,A*63
47.664,$GPGST,095042.00,,,,,0.54,0.34,0.82*61
48.543,$GPGGA,095043.00,4811.854580,N,00300.932451,W,1,09,1.0,167.156,M,0.000,M,,*4C
48.547,$GPVTG,344.7,T,,,1.57,N,2.91,K,A*4D
48.583,$GPZDA,095043.00,20,10,2016,+00,00*40
48.624,$GPRMC,095043.13,A,4811.85458,N,00300.93245,W,1.6,344.7,201016,,,A*60
48.664,$GPGST,095043.00,,,,,0.53,0.34,0.81*64
49.543,þA
49.547,$GPVTG,344.8,T,,,1.60,N,2.96,K,A*41
49.583,$GPZDA,095044.00,20,10,2016,+00,00*47
49.624,$GPRMC,095044.13,A,4811.85506,N,00300.93263,W,1.6,344.8,201016,,,A*66
49.664,$GPGST,095044.00,,,,,0.54,0.35,0.83*67
50.544,$GPGGA,095045.00,4811.855505,N,00300.932742,W,1,09,1.0,167.113,M,0.000,M,,*46
50.547,$GPVTG,345.5,T,,,1.61,N,2.99,K,A*43
50.584,$GPZDA,095045.00,20,10,2016,+00,00*46
50.625,$GPRMC,095045.13,A,4811.85551,N,00300.93274,W,1.6,345.5,201016,,,A*6F
50.665,$GPGST,095045.00,,,,,0.53,0.34,0.81*62
