0.738,$GPGGA,131922.00,4811.927336,N,00300.888481,W,5,09,1.0,172.410,M,0.000,M,1.0,0001*67
0.779,$GPVTG,0.0,T,,,0.00,N,0.01,K,D*44
0.819,$GPZDA,131922.00,19,10,2016,+00,00*4B
0.859,$GPRMC,131922.13,A,4811.92734,N,00300.88848,W,0.0,0.0,191016,,,D*6F
0.899,$GPGST,131922.00,,,,,0.65,1.05,0.68*64
1.738,$GPGGA,131923.00,4811.927311,N,00300.888142,W,5,09,1.0,172.421,M,0.000,M,1.0,0001*6B
1.741,$GPVTG,0.0,T,,,0.00,N,0.01,K,D*44
1.778,$GPZDA,131923.00,19,10,2016,+00,00*4A
1.818,$GPRMC,131923.13,A,4811.92731,N,00300.88814,W,0.0,0.0,191016,,,D*62
1.859,$GPGST,131923.00,,,,,0.65,1.05,0.68*65
2.738,$GPGGA,131924.00,4811.927307,N,00300.888471,W,5,09,1.0,172.363,M,0.000,M,1.0,0001*6F
2.741,$GPVTG,0.0,T,,,0.00,N,0.01,K,D*44
2.778,$GPZDA,131924.00,19,10,2016,+00,00*4D
2.818,$GPRMC,131924.13,A,4811.92731,N,00300.88847,W,0.0,0.0,191016,,,D*63
2.859,$GPGST,131924.00,,,,,0.65,1.05,0.68*62
3.738,$GPGGA,131925.00,4811.927320,N,00300.888042,W,5,09,1.0,172.381,M,0.000,M,1.0,0001*63
3.741,$GPVTG,0.0,T,,,0.00,N,0.01,K,D*44
3.778,$GPZDA,131925.00,19,10,2016,+00,00*4C
3.818,$GPRMC,131925.13,A,4811.92732,N,00300.88804,W,0.0,0.0,191016,,,D*66
3.858,$GPGST,131925.00,,,,,0.65,1.05,0.68*63
4.738,$GPGGA,131926.00,4811.927332,N,00300.888430,W,5,09,1.0,172.350,M,0.000,M,1.0,0001*6E
4.741,$GPVTG,0.0,T,,,0.00,N,0.00,K,D*45
4.778,$GPZDA,131926.00,19,10,2016,+00,00*4F
4.818,$GPRMC,131926.13,A,4811.92733,N,00300.88843,W,0.0,0.0,191016,,,D*67
4.858,$GPGST,131926.00,,,,,0.65,1.05,0.68*60
5.738,$GPGGA,131927.00,4811.927313,N,00300.888056,W,5,09,1.0,172.285,M,0.000,M,1.0,0001*61
5.741,$GPVTG,0.0,T,,,0.00,N,0.00,K,D*45
5.778,$GPZDA,131927.00,19,10,2016,+00,00*4E
5.818,$GPRMC,131927.13,A,4811.92731,N,00300.88806,W,0.0,0.0,191016,,,D*65
5.859,$GPGST,131927.00,,,,,0.65,1.05,0.68*61
6.738,$GPGGA,131928.00,4811.927333,N,00300.888198,W,5,09,1.0,172.407,M,0.000,M,1.0,0001*63
6.741,$GPVTG,0.0,T,,,0.00,N,0.00,K,D*45
6.778,$GPZDA,131928.00,19,10,2016,+00,00*41
6.818,$GPRMC,131928.13,A,4811.92733,N,00300.88820,W,0.0,0.0,191016,,,D*6C
6.858,$GPGST,131928.00,,,,,0.64,1.05,0.68*6F
7.738,$GPGGA,131929.00,4811.927267,N,00300.887726,W,5,09,1.0,172.455,M,0.000,M,1.0,0001*69
7.741,$GPVTG,0.0,T,,,0.01,N,0.01,K,D*45
7.778,$GPZDA,131929.00,19,10,2016,+00,00*40
7.818,$GPRMC,131929.13,A,4811.92727,N,00300.88773,W,0.0,0.0,191016,,,D*61
7.858,$GPGST,131929.00,,,,,0.64,1.05,0.68*6E
8.738,$GPGGA,131930.00,4811.927345,N,00300.887814,W,5,09,1.0,172.314,M,0.000,M,1.0,0001*6C
8.741,$GPVTG,0.0,T,,,0.01,N,0.01,K,D*45
8.778,$GPZDA,131930.00,19,10,2016,+00,00*48
8.818,$GPRMC,131930.13,A,4811.92735,N,00300.88781,W,0.0,0.0,191016,,,D*67
8.858,$GPGST,131930.00,,,,,0.64,1.04,0.68*67
9.738,$GPGGA,131931.00,4811.927302,N,00300.887584,W,5,09,1.0,172.305,M,0.000,M,1.0,0001*6A
9.741,$GPVTG,0.0,T,,,0.01,N,0.01,K,D*45
9.778,$GPZDA,131931.00,19,10,2016,+00,00*49
9.818,$GPRMC,131931.13,A,4811.92730,N,00300.88758,W,0.0,0.0,191016,,,D*67
9.858,$GPGST,131931.00,,,,,0.64,1.04,0.67*69
10.738,$GPGGA,131932.00,4811.927303,N,00300.887581,W,5,08,1.2,172.273,M,0.000,M,1.0,0001*6E
10.741,$GPVTG,0.0,T,,,0.01,N,0.01,K,D*45
10.778,$GPZDA,131932.00,19,10,2016,+00,00*4A
10.818,$GPRMC,131932.13,A,4811.92730,N,00300.88758,W,0.0,0.0,191016,,,D*64
10.858,$GPGST,131932.00,,,,,0.64,1.04,0.68*65
11.738,$GPGGA,131933.00,4811.927291,N,00300.887862,W,5,08,1.2,172.367,M,0.000,M,1.0,0001*61
11.741,$GPVTG,0.0,T,,,0.01,N,0.02,K,D*46
11.778,$GPZDA,131933.00,19,10,2016,+00,00*4B
11.818,$GPRMC,131933.13,A,4811.92729,N,00300.88786,W,0.0,0.0,191016,,,D*6E
11.858,$GPGST,131933.00,,,,,0.64,1.04,0.68*64
12.738,$GPGGA,131934.00,4811.927323,N,00300.887712,W,5,08,1.2,172.231,M,0.000,M,1.0,0001*64
12.741,$GPVTG,0.0,T,,,0.01,N,0.01,K,D*45
12.778,$GPZDA,131934.00,19,10,2016,+00,00*4C
12.818,$GPRMC,131934.13,A,4811.92732,N,00300.88771,W,0.0,0.0,191016,,,D*6B
12.858,$GPGST,131934.00,,,,,0.64,1.04,0.68*63
13.738,$GPGGA,131935.00,4811.927331,N,00300.887693,W,5,08,1.2,172.089,M,0.000,M,1.0,0001*6F
13.742,$GPVTG,0.0,T,,,0.00,N,0.01,K,D*44
13.778,$GPZDA,131935.00,19,10,2016,+00,00*4D
13.818,$GPRMC,131935.13,A,4811.92733,N,00300.88769,W,0.0,0.0,191016,,,D*62
13.858,$GPGST,131935.00,,,,,0.64,1.04,0.67*6D
14.739,$GPGGA,131936.00,4811.927315,N,00300.887803,W,5,08,1.2,172.320,M,0.000,M,1.0,0001*6D
14.742,$GPVTG,0.0,T,,,0.00,N,0.01,K,D*44
14.779,$GPZDA,131936.00,19,10,2016,+00,00*4E
14.819,$GPRMC,131936.13,A,4811.92731,N,00300.88780,W,0.0,0.0,191016,,,D*64
14.859,$GPGST,131936.00,,,,,0.64,1.04,0.67*6E
15.739,$GPGGA,131937.00,4811.927277,N,00300.887646,W,5,08,1.2,172.416,M,0.000,M,1.0,0001*64
15.742,$GPVTG,0.0,T,,,0.00,N,0.01,K,D*44
15.779,$GPZDA,131937.00,19,10,2016,+00,00*4F
15.819,$GPRMC,131937.13,A,4811.92728,N,00300.88765,W,0.0,0.0,191016,,,D*66
15.859,$GPGST,131937.00,,,,,0.63,1.04,0.67*68
16.739,$GPGGA,131938.00,4811.927350,N,00300.887433,W,5,08,1.2,171.930,M,0.000,M,1.0,0001*65
16.741,$GPVTG,0.0,T,,,0.00,N,0.01,K,D*44
16.779,$GPZDA,131938.00,19,10,2016,+00,00*40
16.819,$GPRMC,131938.13,A,4811.92735,N,00300.88743,W,0.0,0.0,191016,,,D*61
16.859,$GPGST,131938.00,,,,,0.63,1.03,0.67*60
17.738,$GPGGA,131939.00,4811.927276,N,00300.887627,W,5,08,1.2,172.404,M,0.000,M,1.0,0001*6F
17.741,$GPVTG,0.0,T,,,0.00,N,0.01,K,D*44
17.779,$GPZDA,131939.00,19,10,2016,+00,00*41
17.819,$GPRMC,131939.13,A,4811.92728,N,00300.88763,W,0.0,0.0,191016,,,D*6E
17.859,$GPGST,131939.00,,,,,0.63,1.03,0.67*61
18.738,$GPGGA,131940.00,4811.927331,N,00300.887371,W,5,08,1.2,172.296,M,0.000,M,1.0,0001*68
18.741,$GPVTG,0.0,T,,,0.00,N,0.01,K,D*44
18.779,$GPZDA,131940.00,19,10,2016,+00,00*4F
18.819,$GPRMC,131940.13,A,4811.92733,N,00300.88737,W,0.0,0.0,191016,,,D*6B
18.859,$GPGST,131940.00,,,,,0.63,1.03,0.67*6F
19.738,$GPGGA,131941.00,4811.927247,N,00300.887774,W,5,08,1.2,172.530,M,0.000,M,1.0,0001*63
19.741,$GPVTG,0.0,T,,,0.00,N,0.00,K,D*45
19.779,$GPZDA,131941.00,19,10,2016,+00,00*4E
19.819,$GPRMC,131941.13,A,4811.92725,N,00300.88777,W,0.0,0.0,191016,,,D*69
19.859,$GPGST,131941.00,,,,,0.63,1.03,0.67*6E
20.738,$GPGGA,131942.00,4811.927290,N,00300.887624,W,5,08,1.2,172.367,M,0.000,M,1.0,0001*6A
20.741,$GPVTG,0.0,T,,,0.00,N,0.00,K,D*45
20.779,$GPZDA,131942.00,19,10,2016,+00,00*4D
20.819,$GPRMC,131942.13,A,4811.92729,N,00300.88762,W,0.0,0.0,191016,,,D*62
20.859,$GPGST,131942.00,,,,,0.63,1.03,0.67*6D
21.738,$GPGGA,131943.00,4811.927330,N,00300.887782,W,5,07,2.1,172.389,M,0.000,M,1.0,0001*62
21.741,$GPVTG,0.0,T,,,0.01,N,0.01,K,D*45
21.779,$GPZDA,131943.00,19,10,2016,+00,00*4C
21.819,$GPRMC,131943.13,A,4811.92733,N,00300.88778,W,0.0,0.0,191016,,,D*63
21.859,$GPGST,131943.00,,,,,0.63,1.04,0.68*64
22.738,þA
22.738,¥ÿ$GPGGA,131944.00,4811.927299,N,00300.887943,W,5,07,2.1,172.451,M,0.000,M,1.0,0001*66
22.779,$GPVTG,0.0,T,,,0.00,N,0.00,K,D*45
22.819,$GPZDA,131944.00,19,10,2016,+00,00*4B
22.859,$GPRMC,131944.13,A,4811.92730,N,00300.88794,W,0.0,0.0,191016,,,D*65
22.899,$GPGST,131944.00,,,,,0.63,1.04,0.68*63
23.738,$GPGGA,131945.00,4811.927351,N,00300.887908,W,5,07,2.1,172.338,M,0.000,M,1.0,0001*65
23.741,$GPVTG,0.0,T,,,0.00,N,0.00,K,D*45
23.778,$GPZDA,131945.00,19,10,2016,+00,00*4A
23.819,$GPRMC,131945.13,A,4811.92735,N,00300.88791,W,0.0,0.0,191016,,,D*64
23.859,$GPGST,131945.00,,,,,0.63,1.03,0.68*65
24.738,$GPGGA,131946.00,4811.927358,N,00300.887971,W,5,08,1.7,172.248,M,0.000,M,1.0,0001*6D
24.741,$GPVTG,0.0,T,,,0.00,N,0.01,K,D*44
24.779,$GPZDA,131946.00,19,10,2016,+00,00*49
24.819,$GPRMC,131946.13,A,4811.92736,N,00300.88797,W,0.0,0.0,191016,,,D*62
24.859,$GPGST,131946.00,,,,,0.63,1.03,0.68*66
25.738,$GPGGA,131947.00,4811.927270,N,00300.887783,W,5,08,1.7,172.458,M,0.000,M,1.0,0001*63
25.741,$GPVTG,0.0,T,,,0.00,N,0.01,K,D*44
25.778,$GPZDA,131947.00,19,10,2016,+00,00*48
25.819,$GPRMC,131947.13,A,4811.92727,N,00300.88778,W,0.0,0.0,191016,,,D*62
25.859,$GPGST,131947.00,,,,,0.63,1.03,0.68*67
26.738,$GPGGA,131948.00,4811.927279,N,00300.887718,W,5,08,1.7,172.343,M,0.000,M,1.0,0001*6A
26.741,$GPVTG,0.0,T,,,0.01,N,0.01,K,D*45
26.778,$GPZDA,131948.00,19,10,2016,+00,00*47
26.819,$GPRMC,131948.13,A,4811.92728,N,00300.88772,W,0.0,0.0,191016,,,D*68
26.859,$GPGST,131948.00,,,,,0.63,1.03,0.68*68
27.738,$GPGGA,131949.00,4811.927313,N,00300.887680,W,5,08,1.7,172.302,M,0.000,M,1.0,0001*63
27.741,$GPVTG,0.0,T,,,0.00,N,0.00,K,D*45
27.778,$GPZDA,131949.00,19,10,2016,+00,00*46
27.818,$GPRMC,131949.13,A,4811.92731,N,00300.88768,W,0.0,0.0,191016,,,D*6A
27.859,$GPGST,131949.00,,,,,0.63,1.03,0.68*69
28.738,$GPGGA,131950.00,4811.927298,N,00300.887752,W,5,08,1.7,172.386,M,0.000,M,1.0,0001*6B
28.741,$GPVTG,0.0,T,,,0.00,N,0.01,K,D*44
28.778,$GPZDA,131950.00,19,10,2016,+00,00*4E
28.818,$GPRMC,131950.13,A,4811.92730,N,00300.88775,W,0.0,0.0,191016,,,D*6F
28.859,$GPGST,131950.00,,,,,0.63,1.03,0.68*61
29.738,$GPGGA,131951.00,4811.927336,N,00300.887738,W,5,08,1.7,172.288,M,0.000,M,1.0,0001*6C
29.741,$GPVTG,0.0,T,,,0.00,N,0.01,K,D*44
29.778,$GPZDA,131951.00,19,10,2016,+00,00*4F
29.818,$GPRMC,131951.13,A,4811.92734,N,00300.88774,W,0.0,0.0,191016,,,D*6B
29.859,$GPGST,131951.00,,,,,0.63,1.03,0.68*60
30.738,$GPGGA,131952.00,4811.927307,N,00300.887496,W,5,08,1.7,172.303,M,0.000,M,1.0,0001*68
30.742,$GPVTG,0.0,T,,,0.00,N,0.01,K,D*44
30.778,$GPZDA,131952.00,19,10,2016,+00,00*4C
30.818,$GPRMC,131952.13,A,4811.92731,N,00300.88750,W,0.0,0.0,191016,,,D*6B
30.859,$GPGST,131952.00,,,,,0.63,1.03,0.67*6C
31.738,$GPGGA,131953.00,4811.927345,N,00300.887720,W,5,08,1.7,172.248,M,0.000,M,1.0,0001*6F
31.742,$GPVTG,0.0,T,,,0.01,N,0.01,K,D*45
31.778,$GPZDA,131953.00,19,10,2016,+00,00*4D
31.818,$GPRMC,131953.13,A,4811.92735,N,00300.88772,W,0.0,0.0,191016,,,D*6E
31.858,$GPGST,131953.00,,,,,0.63,1.03,0.67*6D
32.739,$GPGGA,131954.00,4811.927277,N,00300.887494,W,5,08,1.7,172.323,M,0.000,M,1.0,0001*68
32.742,$GPVTG,0.0,T,,,0.00,N,0.01,K,D*44
32.779,$GPZDA,131954.00,19,10,2016,+00,00*4A
32.819,$GPRMC,131954.13,A,4811.92728,N,00300.88749,W,0.0,0.0,191016,,,D*6D
32.859,$GPGST,131954.00,,,,,0.63,1.03,0.67*6A
33.739,$GPGGA,131955.00,4811.927311,N,00300.887554,W,5,08,1.7,172.400,M,0.000,M,1.0,0001*63
33.742,$GPVTG,0.0,T,,,0.01,N,0.01,K,D*45
33.779,$GPZDA,131955.00,19,10,2016,+00,00*4B
33.819,$GPRMC,131955.13,A,4811.92731,N,00300.88755,W,0.0,0.0,191016,,,D*69
33.859,$GPGST,131955.00,,,,,0.63,1.03,0.67*6B
34.739,$GPGGA,131956.00,4811.927226,N,00300.887285,W,5,08,1.7,172.385,M,0.000,M,1.0,0001*64
34.742,$GPVTG,0.0,T,,,0.00,N,0.01,K,D*44
34.779,$GPZDA,131956.00,19,10,2016,+00,00*48
34.819,$GPRMC,131956.13,A,4811.92723,N,00300.88728,W,0.0,0.0,191016,,,D*63
34.859,$GPGST,131956.00,,,,,0.63,1.03,0.67*68
35.739,$GPGGA,131957.00,4811.927351,N,00300.887440,W,5,08,1.7,172.307,M,0.000,M,1.0,0001*61
35.742,$GPVTG,0.0,T,,,0.00,N,0.00,K,D*45
35.779,$GPZDA,131957.00,19,10,2016,+00,00*49
35.819,$GPRMC,131957.13,A,4811.92735,N,00300.88744,W,0.0,0.0,191016,,,D*6F
35.859,$GPGST,131957.00,,,,,0.62,1.03,0.67*68
36.739,$GPGGA,131958.00,4811.927410,N,00300.887731,W,5,08,1.7,172.172,M,0.000,M,1.0,0001*69
36.742,$GPVTG,0.0,T,,,0.00,N,0.01,K,D*44
36.779,$GPZDA,131958.00,19,10,2016,+00,00*46
36.819,$GPRMC,131958.13,A,4811.92741,N,00300.88773,W,0.0,0.0,191016,,,D*67
36.859,$GPGST,131958.00,,,,,0.62,1.03,0.67*67
37.739,$GPGGA,131959.00,4811.927249,N,00300.887211,W,5,08,1.7,172.426,M,0.000,M,1.0,0001*61
37.742,$GPVTG,0.0,T,,,0.00,N,0.01,K,D*44
37.779,$GPZDA,131959.00,19,10,2016,+00,00*47
37.819,$GPRMC,131959.13,A,4811.92725,N,00300.88721,W,0.0,0.0,191016,,,D*63
37.859,$GPGST,131959.00,,,,,0.62,1.03,0.67*66
38.739,$GPGGA,132000.00,4811.927307,N,00300.887613,W,5,08,1.7,172.340,M,0.000,M,1.0,0001*6D
38.742,$GPVTG,0.0,T,,,0.00,N,0.00,K,D*45
38.779,$GPZDA,132000.00,19,10,2016,+00,00*41
38.819,$GPRMC,132000.13,A,4811.92731,N,00300.88761,W,0.0,0.0,191016,,,D*64
38.859,$GPGST,132000.00,,,,,0.62,1.03,0.67*60
