0.678,$GPGGA,135139.00,4811.829168,N,00300.941186,W,5,09,1.0,171.836,M,0.000,M,1.0,0001*6A
0.718,$GPVTG,306.0,T,,,1.38,N,2.56,K,D*4B
0.759,$GPZDA,135139.00,19,10,2016,+00,00*4D
0.799,$GPRMC,135139.16,A,4811.82917,N,00300.94119,W,1.4,306.0,191016,,,D*62
0.839,$GPGST,135139.00,,,,,1.52,1.86,2.43*67
1.674,$GPGGA,135140.00,4811.829758,N,00300.942008,W,5,09,1.0,171.398,M,0.000,M,1.0,0001*6A
1.677,$GPVTG,308.7,T,,,1.40,N,2.59,K,D*42
1.716,$GPZDA,135140.00,19,10,2016,+00,00*43
1.755,$GPRMC,135140.16,A,4811.82976,N,00300.94201,W,1.4,308.7,191016,,,D*68
1.795,$GPGST,135140.00,,,,,1.52,1.86,2.42*68
2.548,$GPGGA,135141.00,4811.829930,N,00300.941648,W,5,09,1.0,171.526,M,0.000,M,2.0,0001*6A
2.677,$GPVTG,311.2,T,,,1.41,N,2.62,K,D*46
2.716,$GPZDA,135141.00,19,10,2016,+00,00*42
2.722,$GPRMC,135141.10,A,4811.82987,N,00300.94176,W,1.4,311.4,191016,,,D*69
2.759,$GPGST,135141.00,,,,,1.50,1.85,2.39*64
3.720,$GPGGA,135142.00,4811.830235,N,00300.942111,W,5,09,1.0,172.169,M,0.000,M,1.0,0001*68
3.724,$GPVTG,314.0,T,,,1.44,N,2.67,K,D*41
3.760,$GPZDA,135142.00,19,10,2016,+00,00*41
3.800,$GPRMC,135142.10,A,4811.83033,N,00300.94143,W,1.4,314.0,191016,,,D*6A
3.840,$GPGST,135142.00,,,,,1.50,1.84,2.38*67
4.680,$GPGGA,135143.00,4811.830713,N,00300.941779,W,5,09,1.0,171.744,M,0.000,M,1.0,0001*69
4.719,$GPVTG,316.3,T,,,1.47,N,2.71,K,D*44
4.722,$GPZDA,135143.00,19,10,2016,+00,00*40
4.761,$GPRMC,135143.17,A,4811.83071,N,00300.94178,W,1.5,316.3,191016,,,D*62
4.801,$GPGST,135143.00,,,,,1.50,1.84,2.39*67
5.548,$GPGGA,135144.00,4811.831234,N,00300.943074,W,5,10,0.9,171.550,M,0.000,M,2.0,0001*63
5.724,$GPVTG,317.9,T,,,1.49,N,2.76,K,D*46
5.728,$GPZDA,135144.00,19,10,2016,+00,00*47
5.765,$GPRMC,135144.13,A,4811.83123,N,00300.94307,W,1.5,317.9,191016,,,D*66
5.805,$GPGST,135144.00,,,,,1.49,1.84,2.37*66
6.681,$GPGGA,135145.00,4811.831469,N,00300.942904,W,5,11,0.8,171.712,M,0.000,M,1.0,0001*64
6.718,$GPVTG,319.3,T,,,1.53,N,2.83,K,D*43
6.721,$GPZDA,135145.00,19,10,2016,+00,00*46
6.761,$GPRMC,135145.10,A,4811.83148,N,00300.94359,W,1.5,319.3,191016,,,D*66
6.801,$GPGST,135145.00,,,,,1.48,1.82,2.34*63
7.680,$GPGGA,135146.00,4811.831856,N,00300.944016,W,5,11,0.8,171.488,M,0.000,M,1.0,0001*6B
7.716,$GPVTG,319.8,T,,,1.56,N,2.88,K,D*46
7.720,$GPZDA,135146.00,19,10,2016,+00,00*45
7.760,$GPRMC,135146.17,A,4811.83186,N,00300.94402,W,1.6,319.8,191016,,,D*61
7.800,$GPGST,135146.00,,,,,1.48,1.82,2.35*61
8.548,$GPGGA,135147.00,4811.832110,N,00300.944621,W,5,10,0.9,172.179,M,0.000,M,2.0,0001*6B
8.676,$GPVTG,319.7,T,,,1.58,N,2.92,K,D*4C
8.717,$GPZDA,135147.00,19,10,2016,+00,00*44
8.723,$GPRMC,135147.16,A,4811.83211,N,00300.94462,W,1.6,319.8,191016,,,D*6A
8.757,$GPGST,135147.00,,,,,1.47,1.82,2.34*6E
9.680,$GPGGA,135148.00,4811.832259,N,00300.944713,W,5,10,0.9,173.217,M,0.000,M,1.0,0001*63
9.716,$GPVTG,319.1,T,,,1.60,N,2.96,K,D*45
9.720,$GPZDA,135148.00,19,10,2016,+00,00*4B
9.760,$GPRMC,135148.17,A,4811.83226,N,00300.94471,W,1.6,319.1,191016,,,D*6B
9.800,$GPGST,135148.00,,,,,1.47,1.82,2.33*66
10.548,$GPGGA,135149.00,4811.832609,N,00300.946090,W,5,10,0.9,173.345,M,0.000,M,2.0,0001*68
10.680,$GPVTG,317.8,T,,,1.60,N,2.97,K,D*43
10.719,$GPZDA,135149.00,19,10,2016,+00,00*4A
10.725,$GPRMC,135149.10,A,4811.83230,N,00300.94478,W,1.6,317.6,191016,,,D*6A
10.762,$GPGST,135149.00,,,,,1.46,1.80,2.31*66
11.550,$GPGGA,135150.00,4811.832535,N,00300.945291,W,5,10,0.9,174.174,M,0.000,M,2.0,0001*6B
11.722,$GPVTG,316.1,T,,,1.59,N,2.95,K,D*43
11.725,$GPZDA,135150.00,19,10,2016,+00,00*42
11.763,$GPRMC,135150.13,A,4811.83254,N,00300.94529,W,1.6,316.1,191016,,,D*60
11.803,$GPGST,135150.00,,,,,1.46,1.81,2.31*6F
12.682,$GPGGA,135151.00,4811.833337,N,00300.947107,W,5,10,0.9,172.901,M,0.000,M,1.0,0001*6E
12.716,$GPVTG,313.6,T,,,1.57,N,2.91,K,D*4B
12.722,$GPZDA,135151.00,19,10,2016,+00,00*43
12.762,$GPRMC,135151.10,A,4811.83328,N,00300.94772,W,1.6,313.6,191016,,,D*66
12.802,$GPGST,135151.00,,,,,1.44,1.79,2.29*62
13.677,$GPGGA,135152.00,4811.833433,N,00300.948263,W,5,09,1.0,172.937,M,0.000,M,2.0,0001*66
13.717,$GPVTG,311.1,T,,,1.54,N,2.86,K,D*4B
13.720,$GPZDA,135152.00,19,10,2016,+00,00*40
13.758,$GPRMC,135152.16,A,4811.83343,N,00300.94825,W,1.5,311.1,191016,,,D*65
13.798,$GPGST,135152.00,,,,,1.45,1.79,2.29*60
14.550,$GPGGA,135153.00,4811.833348,N,00300.947885,W,5,09,1.0,173.298,M,0.000,M,2.0,0001*6E
14.671,$GPVTG,308.7,T,,,1.52,N,2.81,K,D*44
14.674,$GPZDA,135153.00,19,10,2016,+00,00*41
14.712,$GPRMC,135153.13,A,4811.83335,N,00300.94788,W,1.5,308.7,191016,,,D*66
14.752,$GPGST,135153.00,,,,,1.44,1.79,2.29*60
15.547,$GPGGA,135154.00,4811.833318,N,00300.947555,W,5,09,1.0,172.689,M,0.000,M,2.0,0001*69
15.671,$GPVTG,305.6,T,,,1.49,N,2.75,K,D*49
15.674,$GPZDA,135154.00,19,10,2016,+00,00*46
15.712,$GPRMC,135154.16,A,4811.83332,N,00300.94756,W,1.5,305.2,191016,,,D*68
15.752,$GPGST,135154.00,,,,,1.44,1.78,2.28*67
16.547,$GPGGA,135155.00,4811.833558,N,00300.948144,W,5,09,1.0,172.474,M,0.000,M,2.0,0001*61
16.664,$GPVTG,301.8,T,,,1.46,N,2.70,K,D*49
16.668,$GPZDA,135155.00,19,10,2016,+00,00*47
16.706,$GPRMC,135155.15,A,4811.83356,N,00300.94815,W,1.5,301.8,191016,,,D*6E
16.746,$GPGST,135155.00,,,,,1.43,1.78,2.27*6E
17.547,$GPGGA,135156.00,4811.833681,N,00300.949598,W,5,08,1.8,172.542,M,0.000,M,2.0,0001*6C
17.664,$GPVTG,298.7,T,,,1.44,N,2.67,K,D*43
17.667,$GPZDA,135156.00,19,10,2016,+00,00*44
17.706,$GPRMC,135156.13,A,4811.83368,N,00300.94960,W,1.4,298.7,191016,,,D*6A
17.746,$GPGST,135156.00,,,,,1.44,1.78,2.28*65
18.548,$GPGGA,135157.00,4811.833668,N,00300.949611,W,5,08,1.8,172.770,M,0.000,M,2.0,0001*6B
18.662,$GPVTG,295.1,T,,,1.43,N,2.64,K,D*4C
18.665,$GPZDA,135157.00,19,10,2016,+00,00*45
18.704,$GPRMC,135157.15,A,4811.83367,N,00300.94961,W,1.4,294.7,191016,,,D*6F
18.744,$GPGST,135157.00,,,,,1.43,1.78,2.27*6C
19.667,$GPGGA,135158.00,4811.833759,N,00300.950975,W,5,08,1.8,172.142,M,0.000,M,1.0,0001*66
19.670,$GPVTG,291.1,T,,,1.41,N,2.61,K,D*4F
19.708,$GPZDA,135158.00,19,10,2016,+00,00*4A
19.748,$GPRMC,135158.15,A,4811.83376,N,00300.95097,W,1.4,291.1,191016,,,D*62
19.788,$GPGST,135158.00,,,,,1.43,1.78,2.26*62
20.548,$GPGGA,135159.00,4811.833755,N,00300.952015,W,5,08,1.8,172.332,M,0.000,M,2.0,0001*60
20.672,$GPVTG,287.6,T,,,1.40,N,2.60,K,D*4F
20.675,$GPZDA,135159.00,19,10,2016,+00,00*4B
20.715,$GPRMC,135159.13,A,4811.83376,N,00300.95201,W,1.4,287.6,191016,,,D*68
20.754,$GPGST,135159.00,,,,,1.43,1.78,2.25*60
21.668,$GPGGA,135200.00,4811.833573,N,00300.951884,W,5,08,1.8,172.691,M,0.000,M,2.0,0001*66
21.672,$GPVTG,283.9,T,,,1.40,N,2.60,K,D*44
21.709,$GPZDA,135200.00,19,10,2016,+00,00*44
21.749,$GPRMC,135200.15,A,4811.83356,N,00300.95188,W,1.4,283.9,191016,,,D*6A
21.789,$GPGST,135200.00,,,,,1.43,1.77,2.25*60
22.548,$GPGGA,135201.00,4811.833808,N,00300.953606,W,5,08,1.8,172.187,M,0.000,M,2.0,0001*60
22.664,$GPVTG,280.6,T,,,1.41,N,2.61,K,D*48
22.668,$GPZDA,135201.00,19,10,2016,+00,00*45
22.705,$GPRMC,135201.15,A,4811.83380,N,00300.95359,W,1.4,280.2,191016,,,D*66
22.746,$GPGST,135201.00,,,,,1.42,1.77,2.24*61
23.548,$GPGGA,135202.00,4811.833451,N,00300.953846,W,5,08,1.2,172.705,M,0.000,M,2.0,0001*6F
23.664,$GPVTG,276.8,T,,,1.41,N,2.61,K,D*4F
23.668,$GPZDA,135202.00,19,10,2016,+00,00*46
23.705,$GPRMC,135202.13,A,4811.83345,N,00300.95385,W,1.4,276.8,191016,,,D*68
23.746,$GPGST,135202.00,,,,,1.41,1.76,2.22*66
24.665,$GPGGA,135203.00,4811.833416,N,00300.954713,W,5,08,1.2,172.410,M,0.000,M,1.0,0001*61
24.668,$GPVTG,272.6,T,,,1.42,N,2.63,K,D*44
24.705,$GPZDA,135203.00,19,10,2016,+00,00*47
24.746,$GPRMC,135203.15,A,4811.83342,N,00300.95471,W,1.4,272.6,191016,,,D*6E
24.786,$GPGST,135203.00,,,,,1.41,1.75,2.21*67
25.548,$GPGGA,135204.00,4811.833314,N,00300.955268,W,5,08,1.2,172.161,M,0.000,M,2.0,0001*6B
25.666,$GPVTG,269.3,T,,,1.43,N,2.64,K,D*4D
25.669,$GPZDA,135204.00,19,10,2016,+00,00*40
25.707,$GPRMC,135204.15,A,4811.83332,N,00300.95527,W,1.4,268.9,191016,,,D*68
25.747,$GPGST,135204.00,,,,,1.40,1.75,2.21*61
26.548,$GPGGA,135205.00,4811.833104,N,00300.955534,W,5,08,1.2,172.391,M,0.000,M,2.0,0001*6A
26.664,$GPVTG,265.6,T,,,1.44,N,2.67,K,D*40
26.668,$GPZDA,135205.00,19,10,2016,+00,00*41
26.705,$GPRMC,135205.13,A,4811.83310,N,00300.95553,W,1.4,265.6,191016,,,D*6E
26.745,$GPGST,135205.00,,,,,1.40,1.74,2.20*60
27.666,$GPGGA,135206.00,4811.832870,N,00300.956235,W,5,08,1.2,172.567,M,0.000,M,2.0,0001*68
27.669,$GPVTG,261.5,T,,,1.45,N,2.69,K,D*48
27.706,$GPZDA,135206.00,19,10,2016,+00,00*42
27.747,$GPRMC,135206.15,A,4811.83287,N,00300.95623,W,1.5,261.5,191016,,,D*66
27.787,$GPGST,135206.00,,,,,1.40,1.74,2.19*69
28.667,$GPGGA,135207.00,4811.832674,N,00300.956950,W,5,08,1.2,172.412,M,0.000,M,1.0,0001*6B
28.670,$GPVTG,257.5,T,,,1.46,N,2.71,K,D*47
28.707,$GPZDA,135207.00,19,10,2016,+00,00*43
28.747,$GPRMC,135207.15,A,4811.83267,N,00300.95695,W,1.5,257.5,191016,,,D*61
28.788,$GPGST,135207.00,,,,,1.39,1.74,2.19*66
29.548,$GPGGA,135208.00,4811.832350,N,00300.957560,W,5,07,2.4,172.559,M,0.000,M,2.0,0001*6E
29.665,$GPVTG,254.0,T,,,1.46,N,2.71,K,D*41
29.668,$GPZDA,135208.00,19,10,2016,+00,00*4C
29.706,$GPRMC,135208.13,A,4811.83235,N,00300.95756,W,1.5,254.0,191016,,,D*67
29.746,$GPGST,135208.00,,,,,1.40,1.74,2.20*6D
30.548,$GPGGA,135209.00,4811.831999,N,00300.957909,W,5,07,2.4,172.592,M,0.000,M,2.0,0001*67
30.666,$GPVTG,250.0,T,,,1.46,N,2.71,K,D*45
30.670,$GPZDA,135209.00,19,10,2016,+00,00*4D
30.707,$GPRMC,135209.15,A,4811.83199,N,00300.95791,W,1.5,249.5,191016,,,D*67
30.747,$GPGST,135209.00,,,,,1.40,1.74,2.19*66
31.666,$GPGGA,135210.00,4811.831668,N,00300.958231,W,5,08,1.8,172.657,M,0.000,M,2.0,0001*6B
31.670,$GPVTG,245.6,T,,,1.46,N,2.70,K,D*46
31.706,$GPZDA,135210.00,19,10,2016,+00,00*45
31.746,$GPRMC,135210.15,A,4811.83167,N,00300.95823,W,1.5,245.6,191016,,,D*67
31.787,$GPGST,135210.00,,,,,1.39,1.74,2.18*61
32.548,$GPGGA,135211.00,4811.831407,N,00300.958977,W,5,08,1.8,172.180,M,0.000,M,2.0,0001*65
32.672,$GPVTG,242.0,T,,,1.45,N,2.68,K,D*4D
32.676,$GPZDA,135211.00,19,10,2016,+00,00*44
32.716,$GPRMC,135211.13,A,4811.83141,N,00300.95898,W,1.4,242.0,191016,,,D*64
32.754,$GPGST,135211.00,,,,,1.39,1.74,2.17*6F
33.548,$GPGGA,135212.00,4811.830592,N,00300.958437,W,5,08,1.8,173.239,M,0.000,M,2.0,0001*63
33.666,$GPVTG,237.9,T,,,1.45,N,2.68,K,D*46
33.669,$GPZDA,135212.00,19,10,2016,+00,00*47
33.707,$GPRMC,135212.15,A,4811.83060,N,00300.95843,W,1.4,237.4,191016,,,D*63
33.747,$GPGST,135212.00,,,,,1.38,1.73,2.17*6A
34.671,$GPGGA,135213.00,4811.830577,N,00300.959562,W,5,08,1.8,172.094,M,0.000,M,1.0,0001*6E
34.674,$GPVTG,233.5,T,,,1.44,N,2.66,K,D*41
34.711,$GPZDA,135213.00,19,10,2016,+00,00*46
34.751,$GPRMC,135213.15,A,4811.83058,N,00300.95956,W,1.4,233.5,191016,,,D*69
34.791,$GPGST,135213.00,,,,,1.38,1.73,2.16*6A
35.549,$GPGGA,135214.00,4811.829995,N,00300.958675,W,5,09,1.0,172.775,M,0.000,M,2.0,0001*67
35.675,$GPVTG,230.0,T,,,1.43,N,2.65,K,D*43
35.717,$GPZDA,135214.00,19,10,2016,+00,00*41
35.723,$GPRMC,135214.13,A,4811.83000,N,00300.95868,W,1.4,230.0,191016,,,D*6F
35.758,$GPGST,135214.00,,,,,1.37,1.72,2.14*61
36.549,$GPGGA,135215.00,4811.829659,N,00300.958928,W,5,09,1.0,172.320,M,0.000,M,2.0,0001*6A
36.667,$GPVTG,226.0,T,,,1.42,N,2.63,K,D*43
36.670,$GPZDA,135215.00,19,10,2016,+00,00*40
36.708,$GPRMC,135215.15,A,4811.82966,N,00300.95892,W,1.4,226.0,191016,,,D*62
36.748,$GPGST,135215.00,,,,,1.37,1.72,2.13*67
37.670,$GPGGA,135216.00,4811.829351,N,00300.959936,W,5,09,1.0,172.613,M,0.000,M,2.0,0001*6F
37.674,$GPVTG,222.5,T,,,1.41,N,2.62,K,D*40
37.710,$GPZDA,135216.00,19,10,2016,+00,00*43
37.750,$GPRMC,135216.15,A,4811.82935,N,00300.95993,W,1.4,222.5,191016,,,D*66
37.790,$GPGST,135216.00,,,,,1.36,1.72,2.13*65
38.549,$GPGGA,135217.00,4811.828923,N,00300.959834,W,5,09,1.0,172.861,M,0.000,M,2.0,0001*68
38.669,$GPVTG,219.8,T,,,1.41,N,2.60,K,D*47
38.672,$GPZDA,135217.00,19,10,2016,+00,00*42
38.710,$GPRMC,135217.13,A,4811.82892,N,00300.95983,W,1.4,219.8,191016,,,D*69
38.750,$GPGST,135217.00,,,,,1.36,1.71,2.12*66
39.672,$GPGGA,135218.00,4811.828669,N,00300.960641,W,5,09,1.0,172.678,M,0.000,M,1.0,0001*65
39.675,$GPVTG,216.9,T,,,1.40,N,2.59,K,D*42
39.712,$GPZDA,135218.00,19,10,2016,+00,00*4D
39.752,$GPRMC,135218.15,A,4811.82867,N,00300.96064,W,1.4,216.9,191016,,,D*67
39.792,$GPGST,135218.00,,,,,1.36,1.71,2.11*6A
40.549,$GPGGA,135219.00,4811.828275,N,00300.960715,W,5,09,1.0,172.458,M,0.000,M,2.0,0001*6E
40.671,$GPVTG,214.8,T,,,1.40,N,2.59,K,D*41
40.674,$GPZDA,135219.00,19,10,2016,+00,00*4C
40.712,$GPRMC,135219.16,A,4811.82828,N,00300.96072,W,1.4,214.6,191016,,,D*64
40.752,$GPGST,135219.00,,,,,1.35,1.71,2.11*68
41.549,$GPGGA,135220.00,4811.827938,N,00300.960404,W,5,09,1.0,172.109,M,0.000,M,2.0,0001*6B
41.669,$GPVTG,213.1,T,,,1.39,N,2.58,K,D*40
41.673,$GPZDA,135220.00,19,10,2016,+00,00*46
41.710,$GPRMC,135220.13,A,4811.82794,N,00300.96040,W,1.4,213.1,191016,,,D*62
41.750,$GPGST,135220.00,,,,,1.35,1.70,2.10*62
42.670,$GPGGA,135221.00,4811.827245,N,00300.959643,W,5,09,1.0,173.102,M,0.000,M,1.0,0001*69
42.674,$GPVTG,211.7,T,,,1.39,N,2.57,K,D*4B
42.716,$GPZDA,135221.00,19,10,2016,+00,00*47
42.752,$GPRMC,135221.15,A,4811.82724,N,00300.95964,W,1.4,211.7,191016,,,D*66
42.792,$GPGST,135221.00,,,,,1.35,1.70,2.10*63
43.548,$GPGGA,135222.00,4811.827037,N,00300.959779,W,5,09,1.0,172.861,M,0.000,M,2.0,0001*6B
43.666,$GPVTG,211.0,T,,,1.38,N,2.56,K,D*4C
43.669,$GPZDA,135222.00,19,10,2016,+00,00*44
43.708,$GPRMC,135222.15,A,4811.82703,N,00300.95978,W,1.4,210.9,191016,,,D*62
43.748,$GPGST,135222.00,,,,,1.34,1.70,2.09*69
44.549,$GPGGA,135223.00,4811.826728,N,00300.960938,W,5,09,1.0,172.823,M,0.000,M,2.0,0001*65
44.669,$GPVTG,210.9,T,,,1.37,N,2.54,K,D*49
44.672,$GPZDA,135223.00,19,10,2016,+00,00*45
44.711,$GPRMC,135223.13,A,4811.82673,N,00300.96094,W,1.4,210.9,191016,,,D*6B
44.751,$GPGST,135223.00,,,,,1.34,1.69,2.08*61
45.548,$GPGGA,135224.00,4811.826516,N,00300.960744,W,5,09,1.0,172.948,M,0.000,M,2.0,0001*64
45.670,$GPVTG,211.2,T,,,1.36,N,2.52,K,D*44
45.673,$GPZDA,135224.00,19,10,2016,+00,00*42
45.711,$GPRMC,135224.16,A,4811.82651,N,00300.96075,W,1.4,211.3,191016,,,D*6D
45.752,$GPGST,135224.00,,,,,1.34,1.69,2.08*66
46.670,$GPGGA,135225.00,4811.826058,N,00300.960200,W,5,09,1.0,173.151,M,0.000,M,2.0,0001*6E
46.673,$GPVTG,212.1,T,,,1.34,N,2.49,K,D*4C
46.711,$GPZDA,135225.00,19,10,2016,+00,00*43
46.751,$GPRMC,135225.15,A,4811.82606,N,00300.96019,W,1.3,212.1,191016,,,D*61
46.791,$GPGST,135225.00,,,,,1.33,1.69,2.07*6F
47.548,$GPGGA,135226.00,4811.825750,N,00300.960216,W,5,09,1.0,173.131,M,0.000,M,2.0,0001*60
47.669,$GPVTG,213.5,T,,,1.32,N,2.45,K,D*43
47.672,$GPZDA,135226.00,19,10,2016,+00,00*40
47.710,$GPRMC,135226.13,A,4811.82575,N,00300.96022,W,1.3,213.5,191016,,,D*6E
47.751,$GPGST,135226.00,,,,,1.33,1.68,2.07*6D
48.668,$GPGGA,135227.00,4811.825597,N,00300.960490,W,5,09,1.0,172.769,M,0.000,M,2.0,0001*6A
48.672,$GPVTG,215.7,T,,,1.30,N,2.41,K,D*41
48.709,$GPZDA,135227.00,19,10,2016,+00,00*41
48.749,$GPRMC,135227.15,A,4811.82560,N,00300.96048,W,1.3,215.7,191016,,,D*65
48.789,$GPGST,135227.00,,,,,1.33,1.68,2.06*6D
49.667,$GPGGA,135228.00,4811.825239,N,00300.961198,W,5,08,1.2,173.048,M,0.000,M,1.0,0001*6F
49.670,$GPVTG,218.1,T,,,1.28,N,2.37,K,D*42
49.707,$GPZDA,135228.00,19,10,2016,+00,00*4E
49.748,$GPRMC,135228.15,A,4811.82524,N,00300.96120,W,1.3,218.1,191016,,,D*6E
49.788,$GPGST,135228.00,,,,,1.33,1.68,2.06*62
50.548,$GPGGA,135229.00,4811.825249,N,00300.961822,W,5,08,1.2,172.566,M,0.000,M,2.0,0001*6A
50.670,$GPVTG,220.9,T,,,1.27,N,2.35,K,D*4C
50.673,$GPZDA,135229.00,19,10,2016,+00,00*4F
50.711,$GPRMC,135229.13,A,4811.82525,N,00300.96182,W,1.3,220.9,191016,,,D*63
50.751,$GPGST,135229.00,,,,,1.32,1.67,2.05*6E
51.666,$GPGGA,135230.00,4811.824962,N,00300.962133,W,5,08,1.2,172.951,M,0.000,M,2.0,0001*63
51.670,$GPVTG,224.7,T,,,1.26,N,2.34,K,D*46
51.706,$GPZDA,135230.00,19,10,2016,+00,00*47
51.747,$GPRMC,135230.15,A,4811.82496,N,00300.96213,W,1.3,224.7,191016,,,D*65
51.787,$GPGST,135230.00,,,,,1.32,1.67,2.04*67
52.672,$GPGGA,135231.00,4811.824733,N,00300.962305,W,5,08,1.2,173.035,M,0.000,M,2.0,0001*65
52.675,$GPVTG,228.3,T,,,1.27,N,2.34,K,D*4F
52.712,$GPZDA,135231.00,19,10,2016,+00,00*46
52.753,$GPRMC,135231.16,A,4811.82473,N,00300.96230,W,1.3,228.3,191016,,,D*65
52.793,$GPGST,135231.00,,,,,1.32,1.67,2.04*66
53.548,$GPGGA,135232.00,4811.824751,N,00300.963003,W,5,08,1.2,172.930,M,0.000,M,2.0,0001*6B
53.669,$GPVTG,231.5,T,,,1.27,N,2.35,K,D*40
53.672,$GPZDA,135232.00,19,10,2016,+00,00*45
53.710,$GPRMC,135232.13,A,4811.82475,N,00300.96300,W,1.3,231.5,191016,,,D*69
53.750,$GPGST,135232.00,,,,,1.31,1.66,2.03*60
54.670,$GPGGA,135233.00,4811.824689,N,00300.964064,W,5,08,1.2,172.712,M,0.000,M,1.0,0001*65
54.673,$GPVTG,235.4,T,,,1.29,N,2.39,K,D*47
54.710,$GPZDA,135233.00,19,10,2016,+00,00*44
54.750,$GPRMC,135233.15,A,4811.82469,N,00300.96406,W,1.3,235.4,191016,,,D*67
54.791,$GPGST,135233.00,,,,,1.31,1.66,2.03*61
55.549,$GPGGA,135234.00,4811.824528,N,00300.964206,W,5,09,1.0,172.787,M,0.000,M,2.0,0001*60
55.673,$GPVTG,238.4,T,,,1.30,N,2.41,K,D*4D
55.677,$GPZDA,135234.00,19,10,2016,+00,00*43
55.720,$GPRMC,135234.13,A,4811.82453,N,00300.96421,W,1.3,238.4,191016,,,D*67
55.755,$GPGST,135234.00,,,,,1.30,1.65,2.02*65
56.549,$GPGGA,135235.00,4811.824252,N,00300.964849,W,5,09,1.0,173.188,M,0.000,M,2.0,0001*62
56.669,$GPVTG,241.3,T,,,1.33,N,2.46,K,D*40
56.672,$GPZDA,135235.00,19,10,2016,+00,00*42
56.710,$GPRMC,135235.13,A,4811.82425,N,00300.96485,W,1.3,241.3,191016,,,D*60
56.750,$GPGST,135235.00,,,,,1.30,1.65,2.02*64
57.549,$GPGGA,135236.00,4811.824193,N,00300.965500,W,5,09,1.0,172.986,M,0.000,M,2.0,0001*69
57.668,$GPVTG,243.9,T,,,1.35,N,2.50,K,D*49
57.671,$GPZDA,135236.00,19,10,2016,+00,00*41
57.709,$GPRMC,135236.13,A,4811.82419,N,00300.96550,W,1.4,243.9,191016,,,D*6A
57.749,$GPGST,135236.00,,,,,1.30,1.64,2.01*65
58.549,$GPGGA,135237.00,4811.824014,N,00300.965524,W,5,09,1.0,173.271,M,0.000,M,2.0,0001*62
58.668,$GPVTG,246.1,T,,,1.37,N,2.54,K,D*42
58.671,$GPZDA,135237.00,19,10,2016,+00,00*40
58.709,$GPRMC,135237.13,A,4811.82401,N,00300.96552,W,1.4,246.1,191016,,,D*6D
58.749,$GPGST,135237.00,,,,,1.30,1.64,2.01*64
59.549,$GPGGA,135238.00,4811.824046,N,00300.966309,W,5,09,1.0,173.137,M,0.000,M,2.0,0001*61
59.668,$GPVTG,248.2,T,,,1.39,N,2.57,K,D*42
59.671,$GPZDA,135238.00,19,10,2016,+00,00*4F
59.709,$GPRMC,135238.13,A,4811.82405,N,00300.96631,W,1.4,248.2,191016,,,D*6D
59.749,$GPGST,135238.00,,,,,1.29,1.64,2.00*62
60.549,$GPGGA,135239.00,4811.824006,N,00300.967788,W,5,09,1.0,173.217,M,0.000,M,2.0,0001*69
60.671,$GPVTG,250.1,T,,,1.40,N,2.59,K,D*48
60.674,$GPZDA,135239.00,19,10,2016,+00,00*4E
60.720,$GPRMC,135239.16,A,4811.82401,N,00300.96778,W,1.4,250.3,191016,,,D*69
60.753,$GPGST,135239.00,,,,,1.29,1.63,2.00*64
61.549,$GPGGA,135240.00,4811.824144,N,00300.968844,W,5,09,1.0,172.809,M,0.000,M,2.0,0001*64
61.668,$GPVTG,251.9,T,,,1.41,N,2.60,K,D*4A
61.672,$GPZDA,135240.00,19,10,2016,+00,00*40
61.709,$GPRMC,135240.13,A,4811.82414,N,00300.96884,W,1.4,251.9,191016,,,D*61
61.749,$GPGST,135240.00,,,,,1.29,1.63,1.99*69
62.549,$GPGGA,135241.00,4811.824126,N,00300.969434,W,5,09,1.0,172.723,M,0.000,M,2.0,0001*6C
62.671,$GPVTG,253.7,T,,,1.41,N,2.61,K,D*47
62.674,$GPZDA,135241.00,19,10,2016,+00,00*41
62.712,$GPRMC,135241.13,A,4811.82413,N,00300.96943,W,1.4,253.7,191016,,,D*61
62.752,$GPGST,135241.00,,,,,1.28,1.62,1.99*68
63.549,$GPGGA,135242.00,4811.824019,N,00300.969173,W,5,09,1.0,173.078,M,0.000,M,2.0,0001*6C
63.667,$GPVTG,255.7,T,,,1.41,N,2.62,K,D*42
63.671,$GPZDA,135242.00,19,10,2016,+00,00*42
63.708,$GPRMC,135242.15,A,4811.82401,N,00300.96918,W,1.4,255.9,191016,,,D*61
63.748,$GPGST,135242.00,,,,,1.28,1.62,1.98*6A
64.550,$GPGGA,135243.00,4811.824022,N,00300.970018,W,5,09,1.0,172.919,M,0.000,M,2.0,0001*6E
64.671,$GPVTG,257.7,T,,,1.41,N,2.62,K,D*40
64.675,$GPZDA,135243.00,19,10,2016,+00,00*43
64.712,$GPRMC,135243.16,A,4811.82402,N,00300.97001,W,1.4,257.9,191016,,,D*62
64.752,$GPGST,135243.00,,,,,1.28,1.61,1.98*68
65.549,$GPGGA,135244.00,4811.823974,N,00300.970632,W,5,09,1.0,173.354,M,0.000,M,2.0,0001*68
65.678,$GPVTG,259.9,T,,,1.40,N,2.60,K,D*43
65.716,$GPZDA,135244.00,19,10,2016,+00,00*44
65.722,$GPRMC,135244.13,A,4811.82397,N,00300.97063,W,1.4,259.9,191016,,,D*61
65.760,$GPGST,135244.00,,,,,1.27,1.61,1.97*6F
66.549,$GPGGA,135245.00,4811.823909,N,00300.971713,W,5,09,1.0,173.797,M,0.000,M,2.0,0001*6B
66.669,$GPVTG,262.5,T,,,1.40,N,2.59,K,D*4D
66.672,$GPZDA,135245.00,19,10,2016,+00,00*45
66.710,$GPRMC,135245.13,A,4811.82391,N,00300.97171,W,1.4,262.5,191016,,,D*60
66.750,$GPGST,135245.00,,,,,1.27,1.61,1.97*6E
67.676,$GPGGA,135246.00,4811.824110,N,00300.972378,W,5,09,1.0,173.698,M,0.000,M,2.0,0001*6B
67.679,$GPVTG,265.5,T,,,1.39,N,2.57,K,D*4A
67.718,$GPZDA,135246.00,19,10,2016,+00,00*46
67.756,$GPRMC,135246.16,A,4811.82411,N,00300.97239,W,1.4,265.5,191016,,,D*61
67.796,$GPGST,135246.00,,,,,1.27,1.60,1.96*6D
68.549,$GPGGA,135247.00,4811.824218,N,00300.972924,W,5,09,1.0,174.181,M,0.000,M,2.0,0001*6A
68.674,$GPVTG,268.1,T,,,1.38,N,2.56,K,D*43
68.677,$GPZDA,135247.00,19,10,2016,+00,00*47
68.720,$GPRMC,135247.13,A,4811.82422,N,00300.97292,W,1.4,268.1,191016,,,D*6D
68.756,$GPGST,135247.00,,,,,1.26,1.60,1.96*6D
69.550,$GPGGA,135248.00,4811.824446,N,00300.973404,W,5,09,1.0,173.512,M,0.000,M,2.0,0001*6F
69.672,$GPVTG,271.5,T,,,1.38,N,2.56,K,D*4F
69.675,$GPZDA,135248.00,19,10,2016,+00,00*48
69.713,$GPRMC,135248.16,A,4811.82445,N,00300.97340,W,1.4,271.5,191016,,,D*64
69.753,$GPGST,135248.00,,,,,1.26,1.59,1.95*6B
70.548,$GPGGA,135249.00,4811.824600,N,00300.973924,W,5,08,1.8,173.537,M,0.000,M,2.0,0001*6F
70.672,$GPVTG,274.0,T,,,1.38,N,2.56,K,D*4F
70.675,$GPZDA,135249.00,19,10,2016,+00,00*49
70.714,$GPRMC,135249.16,A,4811.82461,N,00300.97391,W,1.4,274.4,191016,,,D*6B
70.754,$GPGST,135249.00,,,,,1.26,1.60,1.96*63
71.548,$GPGGA,135250.00,4811.824897,N,00300.974983,W,5,08,1.8,173.363,M,0.000,M,2.0,0001*6A
71.669,$GPVTG,277.1,T,,,1.38,N,2.56,K,D*4D
71.672,$GPZDA,135250.00,19,10,2016,+00,00*41
71.711,$GPRMC,135250.13,A,4811.82490,N,00300.97498,W,1.4,277.1,191016,,,D*60
71.751,$GPGST,135250.00,,,,,1.26,1.60,1.95*68
72.549,$GPGGA,135251.00,4811.824912,N,00300.975138,W,5,08,1.8,173.390,M,0.000,M,2.0,0001*62
72.668,$GPVTG,279.9,T,,,1.38,N,2.56,K,D*4B
72.672,$GPZDA,135251.00,19,10,2016,+00,00*40
72.710,$GPRMC,135251.13,A,4811.82491,N,00300.97514,W,1.4,279.9,191016,,,D*63
72.750,$GPGST,135251.00,,,,,1.26,1.60,1.95*69
73.669,$GPGGA,135252.00,4811.825144,N,00300.975862,W,5,08,1.8,173.458,M,0.000,M,2.0,0001*6E
73.672,$GPVTG,282.6,T,,,1.39,N,2.57,K,D*40
73.710,$GPZDA,135252.00,19,10,2016,+00,00*43
73.750,$GPRMC,135252.15,A,4811.82514,N,00300.97587,W,1.4,282.6,191016,,,D*6B
73.790,$GPGST,135252.00,,,,,1.26,1.60,1.94*6B
74.550,$GPGGA,135253.00,4811.825364,N,00300.976189,W,5,08,1.8,173.493,M,0.000,M,2.0,0001*67
74.669,$GPVTG,285.2,T,,,1.39,N,2.57,K,D*43
74.672,$GPZDA,135253.00,19,10,2016,+00,00*42
74.710,$GPRMC,135253.13,A,4811.82536,N,00300.97619,W,1.4,285.2,191016,,,D*6B
74.751,$GPGST,135253.00,,,,,1.26,1.59,1.93*67
75.549,$GPGGA,135254.00,4811.825602,N,00300.976802,W,5,08,1.8,173.376,M,0.000,M,2.0,0001*63
75.673,$GPVTG,287.7,T,,,1.39,N,2.57,K,D*44
75.677,$GPZDA,135254.00,19,10,2016,+00,00*45
75.720,$GPRMC,135254.13,A,4811.82560,N,00300.97680,W,1.4,287.7,191016,,,D*68
75.755,$GPGST,135254.00,,,,,1.25,1.59,1.93*63
76.680,$GPGGA,135255.00,4811.825855,N,00300.977007,W,5,08,1.8,173.186,M,0.000,M,2.0,0001*6F
76.717,$GPVTG,290.9,T,,,1.38,N,2.55,K,D*4F
76.721,$GPZDA,135255.00,19,10,2016,+00,00*44
76.761,$GPRMC,135255.16,A,4811.82585,N,00300.97702,W,1.4,290.9,191016,,,D*64
76.801,$GPGST,135255.00,,,,,1.25,1.59,1.92*63
77.549,$GPGGA,135256.00,4811.826162,N,00300.977522,W,5,08,1.8,172.917,M,0.000,M,2.0,0001*61
77.676,$GPVTG,293.6,T,,,1.37,N,2.54,K,D*4D
77.717,$GPZDA,135256.00,19,10,2016,+00,00*47
77.724,$GPRMC,135256.13,A,4811.82616,N,00300.97752,W,1.4,293.6,191016,,,D*62
77.758,$GPGST,135256.00,,,,,1.25,1.59,1.92*60
78.549,$GPGGA,135257.00,4811.826407,N,00300.977840,W,5,09,1.0,172.460,M,0.000,M,2.0,0001*6B
78.675,$GPVTG,296.9,T,,,1.36,N,2.52,K,D*40
78.678,$GPZDA,135257.00,19,10,2016,+00,00*46
78.720,$GPRMC,135257.13,A,4811.82641,N,00300.97784,W,1.4,296.9,191016,,,D*60
78.757,$GPGST,135257.00,,,,,1.24,1.58,1.91*62
79.677,$GPGGA,135258.00,4811.826608,N,00300.978202,W,5,10,0.9,172.379,M,0.000,M,1.0,0001*66
79.717,$GPVTG,300.2,T,,,1.34,N,2.49,K,D*4D
79.721,$GPZDA,135258.00,19,10,2016,+00,00*49
79.758,$GPRMC,135258.16,A,4811.82661,N,00300.97820,W,1.3,300.2,191016,,,D*6B
79.798,$GPGST,135258.00,,,,,1.23,1.58,1.90*6B
80.549,$GPGGA,135259.00,4811.827009,N,00300.978216,W,5,10,0.9,172.145,M,0.000,M,2.0,0001*6A
80.671,$GPVTG,303.1,T,,,1.34,N,2.48,K,D*4C
80.674,$GPZDA,135259.00,19,10,2016,+00,00*48
80.712,$GPRMC,135259.13,A,4811.82701,N,00300.97822,W,1.3,303.1,191016,,,D*6A
80.752,$GPGST,135259.00,,,,,1.23,1.57,1.89*6D
81.668,$GPGGA,135300.00,4811.827178,N,00300.977569,W,5,08,1.7,171.954,M,0.000,M,1.0,0001*6E
81.671,$GPVTG,307.3,T,,,1.33,N,2.46,K,D*43
81.708,$GPZDA,135300.00,19,10,2016,+00,00*45
81.749,$GPRMC,135300.15,A,4811.82718,N,00300.97757,W,1.3,307.3,191016,,,D*62
81.789,$GPGST,135300.00,,,,,1.23,1.58,1.90*67
82.669,$GPGGA,135301.00,4811.827730,N,00300.978381,W,5,08,1.7,171.906,M,0.000,M,1.0,0001*6D
82.673,$GPVTG,311.1,T,,,1.33,N,2.47,K,D*47
82.709,$GPZDA,135301.00,19,10,2016,+00,00*44
82.749,$GPRMC,135301.15,A,4811.82773,N,00300.97838,W,1.3,311.1,191016,,,D*6D
82.790,$GPGST,135301.00,,,,,1.23,1.58,1.89*6E
83.549,$GPGGA,135302.00,4811.828120,N,00300.979451,W,5,08,1.7,172.003,M,0.000,M,2.0,0001*61
83.665,$GPVTG,314.3,T,,,1.34,N,2.49,K,D*49
83.668,$GPZDA,135302.00,19,10,2016,+00,00*47
83.706,$GPRMC,135302.13,A,4811.82812,N,00300.97945,W,1.3,314.3,191016,,,D*6C
83.746,$GPGST,135302.00,,,,,1.23,1.57,1.89*62
84.671,$GPGGA,135303.00,4811.828600,N,00300.979514,W,5,08,1.7,171.742,M,0.000,M,1.0,0001*67
84.674,$GPVTG,318.6,T,,,1.36,N,2.53,K,D*49
84.711,$GPZDA,135303.00,19,10,2016,+00,00*46
84.751,$GPRMC,135303.15,A,4811.82860,N,00300.97951,W,1.4,318.6,191016,,,D*65
84.792,$GPGST,135303.00,,,,,1.23,1.57,1.88*62
85.646,$GPGGA,135304.00,4811.828945,N,00300.979607,W,5,08,1.7,171.902,M,0.000,M,1.0,0001*65
85.649,$GPVTG,321.7,T,,,1.39,N,2.58,K,D*46
85.686,$GPZDA,135304.00,19,10,2016,+00,00*41
85.726,$GPRMC,135304.13,A,4811.82895,N,00300.97961,W,1.4,321.7,191016,,,D*66
85.767,$GPGST,135304.00,,,,,1.23,1.57,1.88*65
86.640,$GPGGA,135305.00,4811.828990,N,00300.978829,W,5,08,1.7,172.922,M,0.000,M,1.0,0001*6E
86.643,$GPVTG,324.8,T,,,1.42,N,2.64,K,D*4F
86.680,$GPZDA,135305.00,19,10,2016,+00,00*40
86.720,$GPRMC,135305.12,A,4811.82899,N,00300.97883,W,1.4,324.8,191016,,,D*6D
86.760,$GPGST,135305.00,,,,,1.23,1.57,1.87*6B
87.645,$GPGGA,135306.00,4811.829423,N,00300.978724,W,5,09,1.5,172.420,M,0.000,M,1.0,0001*67
87.648,$GPVTG,327.1,T,,,1.46,N,2.70,K,D*44
87.685,$GPZDA,135306.00,19,10,2016,+00,00*43
87.725,$GPRMC,135306.13,A,4811.82942,N,00300.97872,W,1.5,327.1,191016,,,D*6D
87.765,$GPGST,135306.00,,,,,1.22,1.57,1.87*69
88.642,$GPGGA,135307.00,4811.829775,N,00300.978828,W,5,09,1.5,172.450,M,0.000,M,1.0,0001*62
88.646,$GPVTG,328.9,T,,,1.49,N,2.76,K,D*4A
88.682,$GPZDA,135307.00,19,10,2016,+00,00*42
88.722,$GPRMC,135307.13,A,4811.82977,N,00300.97883,W,1.5,328.9,191016,,,D*63
88.762,$GPGST,135307.00,,,,,1.22,1.57,1.87*68
89.640,$GPGGA,135308.00,4811.830211,N,00300.979158,W,5,08,1.7,172.471,M,0.000,M,1.0,0001*6D
89.643,$GPVTG,329.8,T,,,1.52,N,2.82,K,D*4B
89.680,$GPZDA,135308.00,19,10,2016,+00,00*4D
89.720,$GPRMC,135308.12,A,4811.83021,N,00300.97916,W,1.5,329.8,191016,,,D*6B
89.760,$GPGST,135308.00,,,,,1.22,1.57,1.87*67
90.648,$GPGGA,135309.00,4811.830562,N,00300.979197,W,5,08,1.7,172.681,M,0.000,M,1.0,0001*61
90.651,$GPVTG,330.1,T,,,1.55,N,2.87,K,D*48
90.688,$GPZDA,135309.00,19,10,2016,+00,00*4C
90.728,$GPRMC,135309.13,A,4811.83056,N,00300.97920,W,1.5,330.1,191016,,,D*6F
90.768,$GPGST,135309.00,,,,,1.22,1.57,1.86*67
91.644,$GPGGA,135310.00,4811.830905,N,00300.979531,W,5,09,1.0,173.010,M,0.000,M,1.0,0001*65
91.647,$GPVTG,330.1,T,,,1.57,N,2.90,K,D*4C
91.684,$GPZDA,135310.00,19,10,2016,+00,00*44
91.724,$GPRMC,135310.13,A,4811.83091,N,00300.97953,W,1.6,330.1,191016,,,D*6B
91.764,$GPGST,135310.00,,,,,1.21,1.56,1.85*6E
92.644,$GPGGA,135311.00,4811.831325,N,00300.980162,W,5,09,1.0,173.080,M,0.000,M,1.0,0001*60
92.647,$GPVTG,329.5,T,,,1.58,N,2.92,K,D*4D
92.684,$GPZDA,135311.00,19,10,2016,+00,00*45
92.724,$GPRMC,135311.13,A,4811.83132,N,00300.98016,W,1.6,329.5,191016,,,D*69
92.764,$GPGST,135311.00,,,,,1.21,1.55,1.85*6C
93.651,$GPGGA,135312.00,4811.831654,N,00300.980774,W,5,09,1.0,173.404,M,0.000,M,1.0,0001*69
93.655,$GPVTG,328.9,T,,,1.57,N,2.92,K,D*4F
93.691,$GPZDA,135312.00,19,10,2016,+00,00*46
93.731,$GPRMC,135312.13,A,4811.83165,N,00300.98077,W,1.6,328.9,191016,,,D*62
93.771,$GPGST,135312.00,,,,,1.21,1.55,1.84*6E
94.648,$GPGGA,135313.00,4811.831864,N,00300.980650,W,5,09,1.0,173.791,M,0.000,M,1.0,0001*6D
94.651,$GPVTG,327.8,T,,,1.56,N,2.90,K,D*42
94.688,$GPZDA,135313.00,19,10,2016,+00,00*47
94.728,$GPRMC,135313.13,A,4811.83186,N,00300.98065,W,1.6,327.8,191016,,,D*63
94.769,$GPGST,135313.00,,,,,1.20,1.55,1.84*6E
95.651,$GPGGA,135314.00,4811.832364,N,00300.981389,W,5,09,1.0,173.334,M,0.000,M,1.0,0001*69
95.655,$GPVTG,326.9,T,,,1.55,N,2.87,K,D*47
95.692,$GPZDA,135314.00,19,10,2016,+00,00*40
95.732,$GPRMC,135314.13,A,4811.83236,N,00300.98139,W,1.5,326.9,191016,,,D*67
95.772,$GPGST,135314.00,,,,,1.20,1.55,1.83*6E
96.651,$GPGGA,135315.00,4811.832476,N,00300.981777,W,5,10,0.9,173.746,M,0.000,M,1.0,0001*68
96.653,$GPVTG,326.1,T,,,1.54,N,2.85,K,D*4C
96.691,$GPZDA,135315.00,19,10,2016,+00,00*41
96.731,$GPRMC,135315.13,A,4811.83248,N,00300.98178,W,1.5,326.1,191016,,,D*62
96.771,$GPGST,135315.00,,,,,1.19,1.54,1.83*64
97.647,$GPGGA,135316.00,4811.832872,N,00300.982275,W,5,10,0.9,173.530,M,0.000,M,1.0,0001*64
97.650,$GPVTG,325.4,T,,,1.52,N,2.82,K,D*4B
97.688,$GPZDA,135316.00,19,10,2016,+00,00*42
97.728,$GPRMC,135316.13,A,4811.83287,N,00300.98227,W,1.5,325.4,191016,,,D*6D
97.768,$GPGST,135316.00,,,,,1.19,1.54,1.82*66
98.643,$GPGGA,135317.00,4811.833269,N,00300.982648,W,5,09,1.0,173.403,M,0.000,M,1.0,0001*6F
98.646,$GPVTG,325.1,T,,,1.51,N,2.80,K,D*4F
98.684,$GPZDA,135317.00,19,10,2016,+00,00*43
98.724,$GPRMC,135317.13,A,4811.83327,N,00300.98265,W,1.5,325.1,191016,,,D*64
98.764,$GPGST,135317.00,,,,,1.19,1.54,1.82*67
99.644,$GPGGA,135318.00,4811.833502,N,00300.982844,W,5,09,1.0,173.562,M,0.000,M,1.0,0001*6E
99.648,$GPVTG,325.2,T,,,1.50,N,2.78,K,D*4A
99.685,$GPZDA,135318.00,19,10,2016,+00,00*4C
99.725,$GPRMC,135318.13,A,4811.83350,N,00300.98284,W,1.5,325.2,191016,,,D*67
99.765,$GPGST,135318.00,,,,,1.19,1.53,1.82*6F
100.647,$GPGGA,135319.00,4811.833950,N,00300.983591,W,5,09,1.0,172.993,M,0.000,M,1.0,0001*63
100.650,$GPVTG,325.4,T,,,1.49,N,2.75,K,D*49
100.688,$GPZDA,135319.00,19,10,2016,+00,00*4D
100.728,$GPRMC,135319.13,A,4811.83395,N,00300.98359,W,1.5,325.4,191016,,,D*68
100.768,$GPGST,135319.00,,,,,1.18,1.53,1.81*6C
101.640,$GPGGA,135320.00,4811.834252,N,00300.983492,W,5,09,1.0,173.058,M,0.000,M,1.0,0001*6A
101.644,$GPVTG,326.2,T,,,1.47,N,2.72,K,D*45
101.681,$GPZDA,135320.00,19,10,2016,+00,00*47
101.721,$GPRMC,135320.12,A,4811.83425,N,00300.98349,W,1.5,326.2,191016,,,D*6B
101.761,$GPGST,135320.00,,,,,1.18,1.53,1.81*66
102.644,$GPGGA,135321.00,4811.834646,N,00300.983554,W,5,09,1.0,173.073,M,0.000,M,1.0,0001*68
102.648,$GPVTG,327.5,T,,,1.46,N,2.70,K,D*40
102.685,$GPZDA,135321.00,19,10,2016,+00,00*46
102.725,$GPRMC,135321.13,A,4811.83465,N,00300.98355,W,1.5,327.5,191016,,,D*64
102.765,$GPGST,135321.00,,,,,1.18,1.52,1.80*67
103.643,$GPGGA,135322.00,4811.835104,N,00300.983938,W,5,09,1.0,172.716,M,0.000,M,1.0,0001*68
103.647,$GPVTG,329.2,T,,,1.45,N,2.68,K,D*43
103.684,$GPZDA,135322.00,19,10,2016,+00,00*45
103.724,$GPRMC,135322.13,A,4811.83510,N,00300.98394,W,1.4,329.2,191016,,,D*61
103.764,$GPGST,135322.00,,,,,1.17,1.52,1.80*6B
104.643,$GPGGA,135323.00,4811.835370,N,00300.984073,W,5,09,1.0,172.988,M,0.000,M,1.0,0001*60
104.647,$GPVTG,331.2,T,,,1.43,N,2.65,K,D*41
104.684,$GPZDA,135323.00,19,10,2016,+00,00*44
104.724,$GPRMC,135323.13,A,4811.83537,N,00300.98407,W,1.4,331.2,191016,,,D*61
104.764,$GPGST,135323.00,,,,,1.17,1.52,1.79*6C
105.651,$GPGGA,135324.00,4811.835816,N,00300.984697,W,5,09,1.0,172.919,M,0.000,M,1.0,0001*68
105.654,$GPVTG,333.6,T,,,1.42,N,2.62,K,D*41
105.691,$GPZDA,135324.00,19,10,2016,+00,00*43
105.732,$GPRMC,135324.13,A,4811.83582,N,00300.98470,W,1.4,333.6,191016,,,D*6E
105.772,$GPGST,135324.00,,,,,1.17,1.52,1.79*6B
106.647,$GPGGA,135325.00,4811.836469,N,00300.985376,W,5,09,1.0,172.510,M,0.000,M,1.0,0001*60
106.650,$GPVTG,336.5,T,,,1.40,N,2.60,K,D*47
106.687,$GPZDA,135325.00,19,10,2016,+00,00*42
106.728,$GPRMC,135325.13,A,4811.83647,N,00300.98538,W,1.4,336.5,191016,,,D*6E
106.768,$GPGST,135325.00,,,,,1.16,1.51,1.78*69
107.646,$GPGGA,135326.00,4811.836776,N,00300.984915,W,5,09,1.0,172.691,M,0.000,M,1.0,0001*6A
107.650,$GPVTG,339.4,T,,,1.39,N,2.57,K,D*43
107.686,$GPZDA,135326.00,19,10,2016,+00,00*41
107.726,$GPRMC,135326.13,A,4811.83678,N,00300.98492,W,1.4,339.4,191016,,,D*6E
107.767,$GPGST,135326.00,,,,,1.16,1.51,1.78*6A
108.645,$GPGGA,135327.00,4811.837208,N,00300.984816,W,5,09,1.5,172.499,M,0.000,M,1.0,0001*6B
108.648,$GPVTG,342.4,T,,,1.37,N,2.54,K,D*42
108.685,$GPZDA,135327.00,19,10,2016,+00,00*40
108.725,$GPRMC,135327.13,A,4811.83721,N,00300.98482,W,1.4,342.4,191016,,,D*6F
108.766,$GPGST,135327.00,,,,,1.16,1.51,1.78*6B
109.644,$GPGGA,135328.00,4811.837538,N,00300.984750,W,5,09,1.5,172.731,M,0.000,M,1.0,0001*6C
109.647,$GPVTG,346.2,T,,,1.36,N,2.51,K,D*44
109.684,$GPZDA,135328.00,19,10,2016,+00,00*4F
109.725,$GPRMC,135328.13,A,4811.83754,N,00300.98475,W,1.4,346.2,191016,,,D*68
109.765,$GPGST,135328.00,,,,,1.16,1.51,1.78*64
110.645,$GPGGA,135329.00,4811.837907,N,00300.984360,W,5,09,1.5,172.740,M,0.000,M,1.0,0001*6C
110.648,$GPVTG,349.8,T,,,1.34,N,2.49,K,D*4A
110.685,$GPZDA,135329.00,19,10,2016,+00,00*4E
110.725,$GPRMC,135329.13,A,4811.83791,N,00300.98436,W,1.3,349.8,191016,,,D*65
110.766,$GPGST,135329.00,,,,,1.16,1.51,1.78*65
111.646,$GPGGA,135330.00,4811.838186,N,00300.984106,W,5,09,1.5,173.089,M,0.000,M,1.0,0001*6B
111.649,$GPVTG,353.8,T,,,1.33,N,2.47,K,D*48
111.686,$GPZDA,135330.00,19,10,2016,+00,00*46
111.726,$GPRMC,135330.13,A,4811.83819,N,00300.98411,W,1.3,353.8,191016,,,D*6C
111.767,$GPGST,135330.00,,,,,1.16,1.51,1.78*6D
112.642,$GPGGA,135331.00,4811.838557,N,00300.984048,W,5,08,1.8,173.357,M,0.000,M,1.0,0001*65
112.645,$GPVTG,357.9,T,,,1.32,N,2.44,K,D*4F
112.682,$GPZDA,135331.00,19,10,2016,+00,00*47
112.722,$GPRMC,135331.13,A,4811.83856,N,00300.98405,W,1.3,357.9,191016,,,D*66
112.762,$GPGST,135331.00,,,,,1.16,1.51,1.79*6D
113.640,$GPGGA,135332.00,4811.838953,N,00300.983465,W,5,08,1.8,173.295,M,0.000,M,1.0,0001*6D
113.643,$GPVTG,2.1,T,,,1.32,N,2.44,K,D*44
113.680,$GPZDA,135332.00,19,10,2016,+00,00*44
113.720,$GPRMC,135332.12,A,4811.83895,N,00300.98346,W,1.3,2.1,191016,,,D*60
113.760,$GPGST,135332.00,,,,,1.16,1.51,1.78*6F
114.645,$GPGGA,135333.00,4811.839365,N,00300.983472,W,5,09,1.0,172.970,M,0.000,M,1.0,0001*6C
114.648,$GPVTG,6.3,T,,,1.31,N,2.43,K,D*46
114.685,$GPZDA,135333.00,19,10,2016,+00,00*45
114.725,$GPRMC,135333.13,A,4811.83936,N,00300.98347,W,1.3,6.3,191016,,,D*6F
114.765,$GPGST,135333.00,,,,,1.15,1.50,1.77*63
115.648,$GPGGA,135334.00,4811.839696,N,00300.982961,W,5,09,1.0,172.767,M,0.000,M,1.0,0001*64
115.651,$GPVTG,10.4,T,,,1.31,N,2.42,K,D*77
115.688,$GPZDA,135334.00,19,10,2016,+00,00*42
115.728,$GPRMC,135334.13,A,4811.83970,N,00300.98296,W,1.3,10.4,191016,,,D*77
115.768,$GPGST,135334.00,,,,,1.15,1.50,1.77*64
116.645,$GPGGA,135335.00,4811.840007,N,00300.982492,W,5,09,1.0,172.722,M,0.000,M,1.0,0001*65
116.648,$GPVTG,14.7,T,,,1.31,N,2.42,K,D*70
116.685,$GPZDA,135335.00,19,10,2016,+00,00*43
116.725,$GPRMC,135335.13,A,4811.84001,N,00300.98249,W,1.3,14.7,191016,,,D*7B
116.765,$GPGST,135335.00,,,,,1.15,1.50,1.77*65
117.648,$GPGGA,135336.00,4811.840419,N,00300.981699,W,5,09,1.0,172.062,M,0.000,M,1.0,0001*64
117.651,$GPVTG,19.0,T,,,1.31,N,2.42,K,D*7A
117.688,$GPZDA,135336.00,19,10,2016,+00,00*40
117.728,$GPRMC,135336.13,A,4811.84042,N,00300.98170,W,1.3,19.0,191016,,,D*7C
117.768,$GPGST,135336.00,,,,,1.15,1.50,1.77*66
118.641,$GPGGA,135337.00,4811.840583,N,00300.981357,W,5,09,1.0,172.782,M,0.000,M,1.0,0001*69
118.644,$GPVTG,23.4,T,,,1.31,N,2.42,K,D*77
118.681,$GPZDA,135337.00,19,10,2016,+00,00*41
118.721,$GPRMC,135337.12,A,4811.84058,N,00300.98136,W,1.3,23.4,191016,,,D*78
118.761,$GPGST,135337.00,,,,,1.15,1.49,1.76*6E
119.642,$GPGGA,135338.00,4811.840717,N,00300.980091,W,5,09,1.0,172.436,M,0.000,M,1.0,0001*6D
119.645,$GPVTG,27.6,T,,,1.31,N,2.42,K,D*71
119.682,$GPZDA,135338.00,19,10,2016,+00,00*4E
119.722,$GPRMC,135338.13,A,4811.84072,N,00300.98009,W,1.3,27.6,191016,,,D*75
119.762,$GPGST,135338.00,,,,,1.15,1.49,1.76*61
120.647,$GPGGA,135339.00,4811.840903,N,00300.979722,W,5,09,1.0,172.729,M,0.000,M,1.0,0001*63
120.650,$GPVTG,32.0,T,,,1.31,N,2.43,K,D*72
120.687,$GPZDA,135339.00,19,10,2016,+00,00*4F
120.727,$GPRMC,135339.13,A,4811.84090,N,00300.97972,W,1.3,32.0,191016,,,D*70
120.767,$GPGST,135339.00,,,,,1.15,1.49,1.76*60
121.643,$GPGGA,135340.00,4811.841327,N,00300.979056,W,5,09,1.0,172.119,M,0.000,M,1.0,0001*61
121.646,$GPVTG,36.4,T,,,1.32,N,2.44,K,D*76
121.683,$GPZDA,135340.00,19,10,2016,+00,00*41
121.723,$GPRMC,135340.13,A,4811.84133,N,00300.97906,W,1.3,36.4,191016,,,D*75
121.763,$GPGST,135340.00,,,,,1.14,1.49,1.76*6F
122.637,$GPGGA,135341.00,4811.841322,N,00300.977947,W,5,09,1.0,172.423,M,0.000,M,1.0,0001*6E
122.640,$GPVTG,40.9,T,,,1.33,N,2.46,K,D*79
122.677,$GPZDA,135341.00,19,10,2016,+00,00*40
122.717,$GPRMC,135341.12,A,4811.84132,N,00300.97795,W,1.3,40.9,191016,,,D*7C
122.757,$GPGST,135341.00,,,,,1.14,1.48,1.76*6F
123.643,$GPGGA,135342.00,4811.841526,N,00300.977492,W,5,09,1.0,172.342,M,0.000,M,1.0,0001*6A
123.646,$GPVTG,45.2,T,,,1.34,N,2.49,K,D*7F
123.683,$GPZDA,135342.00,19,10,2016,+00,00*43
123.723,$GPRMC,135342.13,A,4811.84153,N,00300.97749,W,1.3,45.2,191016,,,D*76
123.763,$GPGST,135342.00,,,,,1.14,1.48,1.76*6C
124.635,$GPGGA,135343.00,4811.841734,N,00300.977177,W,5,09,1.0,172.014,M,0.000,M,1.0,0001*64
124.642,$GPVTG,49.3,T,,,1.36,N,2.52,K,D*7A
124.676,$GPZDA,135343.00,19,10,2016,+00,00*42
124.716,$GPRMC,135343.12,A,4811.84173,N,00300.97718,W,1.4,49.3,191016,,,D*7A
124.756,$GPGST,135343.00,,,,,1.14,1.48,1.76*6D
125.638,$GPGGA,135344.00,4811.841855,N,00300.976531,W,5,08,1.1,172.187,M,0.000,M,1.0,0001*67
125.641,$GPVTG,53.2,T,,,1.38,N,2.56,K,D*7A
125.679,$GPZDA,135344.00,19,10,2016,+00,00*45
125.719,$GPRMC,135344.12,A,4811.84186,N,00300.97653,W,1.4,53.2,191016,,,D*73
125.759,$GPGST,135344.00,,,,,1.14,1.47,1.76*65
126.637,$GPGGA,135345.00,4811.841992,N,00300.976490,W,5,08,1.1,172.219,M,0.000,M,1.0,0001*62
126.641,$GPVTG,56.9,T,,,1.40,N,2.60,K,D*7E
126.678,$GPZDA,135345.00,19,10,2016,+00,00*44
126.718,$GPRMC,135345.12,A,4811.84199,N,00300.97649,W,1.4,56.9,191016,,,D*79
126.758,$GPGST,135345.00,,,,,1.14,1.47,1.76*64
127.637,$GPGGA,135346.00,4811.842071,N,00300.975936,W,5,08,1.1,172.282,M,0.000,M,1.0,0001*66
127.640,$GPVTG,60.3,T,,,1.42,N,2.64,K,D*77
127.678,$GPZDA,135346.00,19,10,2016,+00,00*47
127.718,$GPRMC,135346.12,A,4811.84207,N,00300.97594,W,1.4,60.3,191016,,,D*72
127.758,$GPGST,135346.00,,,,,1.14,1.46,1.75*65
128.637,$GPGGA,135347.00,4811.842135,N,00300.975313,W,5,08,1.1,172.062,M,0.000,M,1.0,0001*67
128.640,$GPVTG,63.6,T,,,1.44,N,2.67,K,D*74
128.678,$GPZDA,135347.00,19,10,2016,+00,00*46
128.718,$GPRMC,135347.12,A,4811.84214,N,00300.97531,W,1.4,63.6,191016,,,D*78
128.758,$GPGST,135347.00,,,,,1.13,1.46,1.75*63
129.646,$GPGGA,135348.00,4811.842166,N,00300.974459,W,5,08,1.1,172.278,M,0.000,M,1.0,0001*6F
129.649,$GPVTG,66.7,T,,,1.47,N,2.71,K,D*74
129.687,$GPZDA,135348.00,19,10,2016,+00,00*49
129.727,$GPRMC,135348.13,A,4811.84217,N,00300.97446,W,1.5,66.7,191016,,,D*71
129.767,$GPGST,135348.00,,,,,1.13,1.46,1.75*6C
130.647,$GPGGA,135349.00,4811.842151,N,00300.973640,W,5,08,1.1,172.294,M,0.000,M,1.0,0001*65
130.650,$GPVTG,69.7,T,,,1.49,N,2.75,K,D*71
130.688,$GPZDA,135349.00,19,10,2016,+00,00*48
130.728,$GPRMC,135349.13,A,4811.84215,N,00300.97364,W,1.5,69.7,191016,,,D*7A
130.768,$GPGST,135349.00,,,,,1.13,1.45,1.75*6E
131.644,$GPGGA,135350.00,4811.842104,N,00300.972794,W,5,08,1.1,172.340,M,0.000,M,1.0,0001*6C
131.647,$GPVTG,72.6,T,,,1.51,N,2.80,K,D*79
131.685,$GPZDA,135350.00,19,10,2016,+00,00*40
131.725,$GPRMC,135350.13,A,4811.84210,N,00300.97279,W,1.5,72.6,191016,,,D*71
131.765,$GPGST,135350.00,,,,,1.13,1.45,1.75*66
132.648,$GPGGA,135351.00,4811.842181,N,00300.972215,W,5,09,1.0,172.359,M,0.000,M,1.0,0001*64
132.652,$GPVTG,75.1,T,,,1.54,N,2.86,K,D*7A
132.688,$GPZDA,135351.00,19,10,2016,+00,00*41
132.729,$GPRMC,135351.13,A,4811.84218,N,00300.97222,W,1.5,75.1,191016,,,D*76
132.769,$GPGST,135351.00,,,,,1.12,1.44,1.74*66
133.646,$GPGGA,135352.00,4811.842325,N,00300.972134,W,5,09,1.0,172.525,M,0.000,M,1.0,0001*66
133.649,$GPVTG,77.4,T,,,1.57,N,2.91,K,D*78
133.686,$GPZDA,135352.00,19,10,2016,+00,00*42
133.727,$GPRMC,135352.13,A,4811.84232,N,00300.97213,W,1.6,77.4,191016,,,D*7B
133.767,$GPGST,135352.00,,,,,1.12,1.44,1.74*65
134.647,$GPGGA,135353.00,4811.842142,N,00300.970513,W,5,09,1.0,172.532,M,0.000,M,1.0,0001*61
134.650,$GPVTG,79.4,T,,,1.60,N,2.97,K,D*74
134.687,$GPZDA,135353.00,19,10,2016,+00,00*43
134.728,$GPRMC,135353.13,A,4811.84214,N,00300.97051,W,1.6,79.4,191016,,,D*74
134.768,$GPGST,135353.00,,,,,1.11,1.43,1.73*67
135.653,$GPGGA,135354.00,4811.842233,N,00300.970011,W,5,10,0.9,172.299,M,0.000,M,1.0,0001*62
135.656,$GPVTG,81.0,T,,,1.63,N,3.03,K,D*78
135.693,$GPZDA,135354.00,19,10,2016,+00,00*44
135.734,$GPRMC,135354.13,A,4811.84223,N,00300.97001,W,1.6,81.0,191016,,,D*71
135.774,$GPGST,135354.00,,,,,1.11,1.42,1.73*61
136.648,$GPGGA,135355.00,4811.842260,N,00300.969646,W,5,10,0.9,172.361,M,0.000,M,1.0,0001*6F
136.651,$GPVTG,82.4,T,,,1.66,N,3.07,K,D*7E
136.688,$GPZDA,135355.00,19,10,2016,+00,00*45
136.729,$GPRMC,135355.13,A,4811.84226,N,00300.96965,W,1.7,82.4,191016,,,D*79
136.769,$GPGST,135355.00,,,,,1.11,1.42,1.73*60
137.648,$GPGGA,135356.00,4811.842260,N,00300.968897,W,5,10,0.9,172.491,M,0.000,M,1.0,0001*67
137.651,$GPVTG,83.4,T,,,1.69,N,3.12,K,D*74
137.688,$GPZDA,135356.00,19,10,2016,+00,00*46
137.728,$GPRMC,135356.13,A,4811.84226,N,00300.96890,W,1.7,83.4,191016,,,D*70
137.769,$GPGST,135356.00,,,,,1.11,1.41,1.72*61
138.650,$GPGGA,135357.00,4811.842432,N,00300.968180,W,5,10,0.9,171.569,M,0.000,M,1.0,0001*6D
138.653,$GPVTG,84.1,T,,,1.71,N,3.17,K,D*7A
138.690,$GPZDA,135357.00,19,10,2016,+00,00*47
138.730,$GPRMC,135357.13,A,4811.84243,N,00300.96818,W,1.7,84.1,191016,,,D*70
138.771,$GPGST,135357.00,,,,,1.10,1.41,1.72*61
139.648,$GPGGA,135358.00,4811.842295,N,00300.967066,W,5,10,0.9,172.065,M,0.000,M,1.0,0001*65
139.651,$GPVTG,84.5,T,,,1.73,N,3.21,K,D*79
139.688,$GPZDA,135358.00,19,10,2016,+00,00*48
139.728,$GPRMC,135358.13,A,4811.84229,N,00300.96707,W,1.7,84.5,191016,,,D*76
139.768,$GPGST,135358.00,,,,,1.10,1.41,1.72*6E
140.652,$GPGGA,135359.00,4811.842337,N,00300.966572,W,5,10,0.9,172.386,M,0.000,M,1.0,0001*62
140.655,$GPVTG,84.9,T,,,1.75,N,3.23,K,D*71
140.692,$GPZDA,135359.00,19,10,2016,+00,00*49
140.732,$GPRMC,135359.13,A,4811.84234,N,00300.96657,W,1.7,84.9,191016,,,D*73
140.773,$GPGST,135359.00,,,,,1.10,1.40,1.72*6E
141.649,$GPGGA,135400.00,4811.842412,N,00300.965935,W,5,10,0.9,172.361,M,0.000,M,1.0,0001*6C
141.652,$GPVTG,85.0,T,,,1.75,N,3.24,K,D*7E
141.689,$GPZDA,135400.00,19,10,2016,+00,00*42
141.729,$GPRMC,135400.13,A,4811.84241,N,00300.96594,W,1.8,85.0,191016,,,D*71
141.769,$GPGST,135400.00,,,,,1.09,1.40,1.71*6E
142.639,$GPGGA,135401.00,4811.842513,N,00300.965005,W,5,09,1.0,172.115,M,0.000,M,1.0,0001*66
142.642,$GPVTG,85.1,T,,,1.75,N,3.25,K,D*7E
142.679,$GPZDA,135401.00,19,10,2016,+00,00*43
142.719,$GPRMC,135401.12,A,4811.84251,N,00300.96501,W,1.8,85.1,191016,,,D*7D
142.759,$GPGST,135401.00,,,,,1.09,1.39,1.71*61
143.633,$GPGGA,135402.00,4811.842544,N,00300.964199,W,5,08,1.1,171.988,M,0.000,M,1.0,0001*6D
143.636,$GPVTG,85.4,T,,,1.75,N,3.24,K,D*7A
143.673,$GPZDA,135402.00,19,10,2016,+00,00*40
143.713,$GPRMC,135402.11,A,4811.84254,N,00300.96420,W,1.8,85.4,191016,,,D*7F
143.753,$GPGST,135402.00,,,,,1.09,1.39,1.72*61
144.633,$GPGGA,135403.00,4811.842551,N,00300.963871,W,5,08,1.1,172.113,M,0.000,M,1.0,0001*69
144.636,$GPVTG,85.6,T,,,1.74,N,3.23,K,D*7E
144.673,$GPZDA,135403.00,19,10,2016,+00,00*41
144.713,$GPRMC,135403.11,A,4811.84255,N,00300.96387,W,1.7,85.6,191016,,,D*78
144.753,$GPGST,135403.00,,,,,1.09,1.39,1.71*63
145.641,$GPGGA,135404.00,4811.842514,N,00300.963098,W,5,08,1.1,172.255,M,0.000,M,1.0,0001*61
145.645,$GPVTG,86.1,T,,,1.73,N,3.21,K,D*7F
145.681,$GPZDA,135404.00,19,10,2016,+00,00*46
145.721,$GPRMC,135404.12,A,4811.84251,N,00300.96310,W,1.7,86.1,191016,,,D*72
145.761,$GPGST,135404.00,,,,,1.09,1.38,1.71*65
146.638,$GPGGA,135405.00,4811.842513,N,00300.962455,W,5,08,1.1,172.362,M,0.000,M,1.0,0001*66
146.642,$GPVTG,86.7,T,,,1.73,N,3.20,K,D*78
146.678,$GPZDA,135405.00,19,10,2016,+00,00*47
146.718,$GPRMC,135405.12,A,4811.84251,N,00300.96246,W,1.7,86.7,191016,,,D*77
146.758,$GPGST,135405.00,,,,,1.09,1.38,1.71*64
147.636,$GPGGA,135406.00,4811.842557,N,00300.961705,W,5,08,1.1,171.975,M,0.000,M,1.0,0001*6F
147.639,$GPVTG,87.7,T,,,1.72,N,3.19,K,D*72
147.676,$GPZDA,135406.00,19,10,2016,+00,00*44
147.716,$GPRMC,135406.12,A,4811.84256,N,00300.96171,W,1.7,87.7,191016,,,D*75
147.756,$GPGST,135406.00,,,,,1.08,1.38,1.71*66
148.641,$GPGGA,135407.00,4811.842516,N,00300.961059,W,5,08,1.1,171.867,M,0.000,M,1.0,0001*67
148.644,$GPVTG,88.8,T,,,1.72,N,3.19,K,D*72
148.681,$GPZDA,135407.00,19,10,2016,+00,00*45
148.721,$GPRMC,135407.12,A,4811.84252,N,00300.96106,W,1.7,88.8,191016,,,D*70
148.761,$GPGST,135407.00,,,,,1.08,1.38,1.71*67
149.639,$GPGGA,135408.00,4811.842438,N,00300.960681,W,5,08,1.1,171.731,M,0.000,M,1.0,0001*6B
149.643,$GPVTG,90.2,T,,,1.73,N,3.20,K,D*7A
149.679,$GPZDA,135408.00,19,10,2016,+00,00*4A
149.719,$GPRMC,135408.12,A,4811.84244,N,00300.96068,W,1.7,90.2,191016,,,D*72
149.759,$GPGST,135408.00,,,,,1.08,1.37,1.70*66
150.644,$GPGGA,135409.00,4811.842282,N,00300.959663,W,5,08,1.1,171.995,M,0.000,M,1.0,0001*6B
150.647,$GPVTG,91.7,T,,,1.74,N,3.22,K,D*7B
150.684,$GPZDA,135409.00,19,10,2016,+00,00*4B
150.724,$GPRMC,135409.13,A,4811.84228,N,00300.95966,W,1.7,91.7,191016,,,D*78
150.764,$GPGST,135409.00,,,,,1.08,1.37,1.70*67
151.640,$GPGGA,135410.00,4811.842188,N,00300.958962,W,5,09,1.0,171.990,M,0.000,M,1.0,0001*60
151.644,$GPVTG,93.1,T,,,1.75,N,3.23,K,D*7F
151.681,$GPZDA,135410.00,19,10,2016,+00,00*43
151.721,$GPRMC,135410.12,A,4811.84219,N,00300.95896,W,1.7,93.1,191016,,,D*79
151.761,$GPGST,135410.00,,,,,1.07,1.37,1.70*60
152.640,$GPGGA,135411.00,4811.842037,N,00300.958450,W,5,09,1.0,172.587,M,0.000,M,1.0,0001*61
152.643,$GPVTG,94.4,T,,,1.76,N,3.25,K,D*78
152.681,$GPZDA,135411.00,19,10,2016,+00,00*42
152.721,$GPRMC,135411.12,A,4811.84204,N,00300.95845,W,1.8,94.4,191016,,,D*77
152.761,$GPGST,135411.00,,,,,1.07,1.36,1.70*60
153.641,$GPGGA,135412.00,4811.842009,N,00300.957728,W,5,09,1.0,172.150,M,0.000,M,1.0,0001*62
153.644,$GPVTG,95.7,T,,,1.76,N,3.26,K,D*79
153.682,$GPZDA,135412.00,19,10,2016,+00,00*41
153.722,$GPRMC,135412.12,A,4811.84201,N,00300.95773,W,1.8,95.7,191016,,,D*79
153.762,$GPGST,135412.00,,,,,1.07,1.36,1.69*6B
