0.706,$GPGGA,095141.00,4811.879144,N,00300.933875,W,1,10,0.9,167.000,M,0.000,M,,*45
0.746,$GPVTG,320.2,T,,,1.28,N,2.37,K,A*4E
0.786,$GPZDA,095141.00,20,10,2016,+00,00*43
0.826,$GPRMC,095141.13,A,4811.87914,N,00300.93387,W,1.3,320.2,201016,,,A*69
0.867,$GPGST,095141.00,,,,,0.52,0.33,0.79*66
1.706,$GPGGA,095142.00,4811.879419,N,00300.934173,W,1,10,0.9,166.924,M,0.000,M,,*4D
1.709,$GPVTG,320.6,T,,,1.28,N,2.36,K,A*4B
1.747,$GPZDA,095142.00,20,10,2016,+00,00*40
1.787,$GPRMC,095142.13,A,4811.87942,N,00300.93417,W,1.3,320.6,201016,,,A*63
1.827,$GPGST,095142.00,,,,,0.53,0.33,0.80*62
2.706,$GPGGA,095143.00,4811.879663,N,00300.934430,W,1,10,0.9,167.017,M,0.000,M,,*49
2.709,$GPVTG,321.4,T,,,1.25,N,2.31,K,A*42
2.746,$GPZDA,095143.00,20,10,2016,+00,00*41
2.786,$GPRMC,095143.13,A,4811.87966,N,00300.93443,W,1.2,321.4,201016,,,A*67
2.826,$GPGST,095143.00,,,,,0.54,0.34,0.81*62
3.706,$GPGGA,095144.00,4811.879944,N,00300.934671,W,1,10,0.9,167.119,M,0.000,M,,*4C
3.709,$GPVTG,321.9,T,,,1.23,N,2.28,K,A*41
3.746,$GPZDA,095144.00,20,10,2016,+00,00*46
3.786,$GPRMC,095144.13,A,4811.87994,N,00300.93467,W,1.2,321.9,201016,,,A*66
3.826,$GPGST,095144.00,,,,,0.54,0.34,0.82*66
4.706,$GPGGA,095145.00,4811.880273,N,00300.934824,W,1,10,0.9,167.189,M,0.000,M,,*43
4.709,$GPVTG,325.3,T,,,1.22,N,2.27,K,A*41
4.746,$GPZDA,095145.00,20,10,2016,+00,00*47
4.786,$GPRMC,095145.13,A,4811.88027,N,00300.93482,W,1.2,325.3,201016,,,A*6C
4.826,$GPGST,095145.00,,,,,0.53,0.34,0.81*63
5.706,$GPGGA,095146.00,4811.880637,N,00300.934907,W,1,10,0.9,167.208,M,0.000,M,,*4E
5.708,$GPVTG,329.1,T,,,1.22,N,2.27,K,A*4F
5.746,$GPZDA,095146.00,20,10,2016,+00,00*44
5.786,$GPRMC,095146.13,A,4811.88064,N,00300.93491,W,1.2,329.1,201016,,,A*64
5.826,$GPGST,095146.00,,,,,0.53,0.33,0.80*66
6.705,$GPGGA,095147.00,4811.881029,N,00300.934969,W,1,10,0.9,167.190,M,0.000,M,,*4D
6.708,$GPVTG,333.2,T,,,1.24,N,2.29,K,A*4F
6.746,$GPZDA,095147.00,20,10,2016,+00,00*45
6.786,$GPRMC,095147.13,A,4811.88103,N,00300.93497,W,1.2,333.2,201016,,,A*6B
6.826,$GPGST,095147.00,,,,,0.53,0.33,0.80*67
7.705,$GPGGA,095148.00,4811.881437,N,00300.934997,W,1,10,0.9,167.172,M,0.000,M,,*44
7.708,$GPVTG,337.5,T,,,1.26,N,2.33,K,A*45
7.746,$GPZDA,095148.00,20,10,2016,+00,00*4A
7.786,$GPRMC,095148.13,A,4811.88144,N,00300.93500,W,1.3,337.5,201016,,,A*6A
7.826,$GPGST,095148.00,,,,,0.54,0.34,0.81*69
8.705,$GPGGA,095149.00,4811.881820,N,00300.934911,W,1,10,0.9,166.893,M,0.000,M,,*46
8.708,$GPVTG,342.5,T,,,1.25,N,2.32,K,A*45
8.746,$GPZDA,095149.00,20,10,2016,+00,00*4B
8.786,$GPRMC,095149.13,A,4811.88182,N,00300.93491,W,1.3,342.5,201016,,,A*6A
8.826,$GPGST,095149.00,,,,,0.57,0.35,0.83*68
9.705,$GPGGA,095150.00,4811.882251,N,00300.934881,W,1,10,0.9,166.898,M,0.000,M,,*42
9.708,$GPVTG,346.1,T,,,1.28,N,2.37,K,A*4D
9.746,$GPZDA,095150.00,20,10,2016,+00,00*43
9.786,$GPRMC,095150.13,A,4811.88225,N,00300.93488,W,1.3,346.1,201016,,,A*64
9.826,$GPGST,095150.00,,,,,0.58,0.35,0.84*68
10.705,$GPGGA,095151.00,4811.882692,N,00300.934850,W,1,10,0.9,166.975,M,0.000,M,,*46
10.708,$GPVTG,349.2,T,,,1.32,N,2.45,K,A*4F
10.745,$GPZDA,095151.00,20,10,2016,+00,00*42
10.786,$GPRMC,095151.13,A,4811.88269,N,00300.93485,W,1.3,349.2,201016,,,A*6C
10.826,$GPGST,095151.00,,,,,0.58,0.35,0.84*69
11.705,$GPGGA,095152.00,4811.883192,N,00300.934797,W,1,10,0.9,167.004,M,0.000,M,,*49
11.708,$GPVTG,352.1,T,,,1.39,N,2.57,K,A*4E
11.746,$GPZDA,095152.00,20,10,2016,+00,00*41
11.786,$GPRMC,095152.13,A,4811.88319,N,00300.93480,W,1.4,352.1,201016,,,A*62
11.826,$GPGST,095152.00,,,,,0.55,0.34,0.80*62
12.705,$GPGGA,095153.00,4811.883724,N,00300.934663,W,1,10,0.9,166.924,M,0.000,M,,*43
12.709,$GPVTG,355.4,T,,,1.46,N,2.70,K,A*41
12.746,$GPZDA,095153.00,20,10,2016,+00,00*40
12.786,$GPRMC,095153.13,A,4811.88372,N,00300.93466,W,1.5,355.4,201016,,,A*65
12.826,$GPGST,095153.00,,,,,0.55,0.33,0.79*62
13.705,$GPGGA,095154.00,4811.884186,N,00300.934542,W,1,10,0.9,166.945,M,0.000,M,,*4A
13.709,$GPVTG,357.9,T,,,1.49,N,2.76,K,A*47
13.745,$GPZDA,095154.00,20,10,2016,+00,00*47
13.786,$GPRMC,095154.13,A,4811.88419,N,00300.93454,W,1.5,357.9,201016,,,A*66
13.826,$GPGST,095154.00,,,,,0.56,0.34,0.80*67
14.705,$GPGGA,095155.00,4811.884644,N,00300.934457,W,1,10,0.9,167.073,M,0.000,M,,*4A
14.709,$GPVTG,359.5,T,,,1.52,N,2.82,K,A*44
14.745,$GPZDA,095155.00,20,10,2016,+00,00*46
14.786,$GPRMC,095155.13,A,4811.88464,N,00300.93446,W,1.5,359.5,201016,,,A*6C
14.826,$GPGST,095155.00,,,,,0.55,0.33,0.79*64
15.705,$GPGGA,095156.00,4811.885143,N,00300.934322,W,1,10,0.9,167.006,M,0.000,M,,*4F
15.709,$GPVTG,1.4,T,,,1.56,N,2.89,K,A*44
15.746,$GPZDA,095156.00,20,10,2016,+00,00*45
15.786,$GPRMC,095156.13,A,4811.88514,N,00300.93432,W,1.6,1.4,201016,,,A*66
15.826,$GPGST,095156.00,,,,,0.56,0.34,0.81*64
16.706,$GPGGA,095157.00,4811.885651,N,00300.934187,W,1,10,0.9,166.961,M,0.000,M,,*4E
16.709,$GPVTG,3.1,T,,,1.60,N,2.96,K,A*48
16.746,$GPZDA,095157.00,20,10,2016,+00,00*44
16.787,$GPRMC,095157.13,A,4811.88565,N,00300.93419,W,1.6,3.1,201016,,,A*6F
16.827,$GPGST,095157.00,,,,,0.56,0.34,0.81*65
17.706,$GPGGA,095158.00,4811.886120,N,00300.934018,W,1,10,0.9,166.938,M,0.000,M,,*48
17.709,$GPVTG,4.5,T,,,1.62,N,3.00,K,A*47
17.746,$GPZDA,095158.00,20,10,2016,+00,00*4B
17.786,$GPRMC,095158.13,A,4811.88612,N,00300.93402,W,1.6,4.5,201016,,,A*6A
17.827,$GPGST,095158.00,,,,,0.57,0.34,0.82*68
18.706,$GPGGA,095159.00,4811.886604,N,00300.933897,W,1,10,0.9,167.081,M,0.000,M,,*4A
18.709,$GPVTG,5.5,T,,,1.64,N,3.04,K,A*44
18.746,$GPZDA,095159.00,20,10,2016,+00,00*4A
18.786,$GPRMC,095159.13,A,4811.88660,N,00300.93390,W,1.6,5.5,201016,,,A*63
18.827,$GPGST,095159.00,,,,,0.56,0.34,0.81*6B
19.706,$GPGGA,095200.00,4811.887133,N,00300.933804,W,1,09,1.0,167.358,M,0.000,M,,*4A
19.709,$GPVTG,6.6,T,,,1.67,N,3.09,K,A*4A
19.746,$GPZDA,095200.00,20,10,2016,+00,00*45
19.786,$GPRMC,095200.13,A,4811.88713,N,00300.93380,W,1.7,6.6,201016,,,A*69
19.827,$GPGST,095200.00,,,,,0.59,0.37,0.90*68
20.706,$GPGGA,095201.00,4811.887608,N,00300.933644,W,1,09,1.0,167.470,M,0.000,M,,*43
20.709,$GPVTG,7.6,T,,,1.68,N,3.11,K,A*4D
20.746,$GPZDA,095201.00,20,10,2016,+00,00*44
20.786,$GPRMC,095201.13,A,4811.88761,N,00300.93364,W,1.7,7.6,201016,,,A*66
20.827,$GPGST,095201.00,,,,,0.59,0.37,0.90*69
21.706,$GPGGA,095202.00,4811.888151,N,00300.933398,W,1,09,1.0,167.300,M,0.000,M,,*40
21.709,$GPVTG,9.0,T,,,1.72,N,3.18,K,A*47
21.747,$GPZDA,095202.00,20,10,2016,+00,00*47
21.787,$GPRMC,095202.13,A,4811.88815,N,00300.93340,W,1.7,9.0,201016,,,A*67
21.827,$GPGST,095202.00,,,,,0.59,0.38,0.90*65
22.706,$GPGGA,095203.00,4811.888658,N,00300.933227,W,1,09,1.0,167.406,M,0.000,M,,*4B
22.709,$GPVTG,9.8,T,,,1.75,N,3.23,K,A*40
22.746,$GPZDA,095203.00,20,10,2016,+00,00*46
22.786,$GPRMC,095203.13,A,4811.88866,N,00300.93323,W,1.7,9.8,201016,,,A*6F
22.826,$GPGST,095203.00,,,,,0.60,0.38,0.91*6F
23.706,$GPGGA,095204.00,4811.889121,N,00300.933013,W,1,09,1.0,167.377,M,0.000,M,,*40
23.709,$GPVTG,10.8,T,,,1.75,N,3.24,K,A*7F
23.746,$GPZDA,095204.00,20,10,2016,+00,00*41
23.786,$GPRMC,095204.13,A,4811.88912,N,00300.93301,W,1.8,10.8,201016,,,A*7D
23.826,$GPGST,095204.00,,,,,0.60,0.38,0.91*68
24.706,$GPGGA,095205.00,4811.889650,N,00300.932738,W,1,09,1.0,167.276,M,0.000,M,,*4F
24.709,$GPVTG,12.1,T,,,1.79,N,3.32,K,A*7F
24.746,$GPZDA,095205.00,20,10,2016,+00,00*40
24.786,$GPRMC,095205.13,A,4811.88965,N,00300.93274,W,1.8,12.1,201016,,,A*74
24.826,$GPGST,095205.00,,,,,0.59,0.37,0.89*65
25.706,$GPGGA,095206.00,4811.890157,N,00300.932499,W,1,10,0.9,167.308,M,0.000,M,,*44
25.709,$GPVTG,12.8,T,,,1.81,N,3.35,K,A*76
25.747,$GPZDA,095206.00,20,10,2016,+00,00*43
25.787,$GPRMC,095206.13,A,4811.89016,N,00300.93250,W,1.8,12.8,201016,,,A*74
25.828,$GPGST,095206.00,,,,,0.54,0.34,0.82*63
26.706,$GPGGA,095207.00,4811.890653,N,00300.932255,W,1,09,1.0,167.300,M,0.000,M,,*48
26.709,$GPVTG,13.6,T,,,1.82,N,3.37,K,A*78
26.746,$GPZDA,095207.00,20,10,2016,+00,00*42
26.786,$GPRMC,095207.13,A,4811.89065,N,00300.93226,W,1.8,13.6,201016,,,A*7F
26.826,$GPGST,095207.00,,,,,0.60,0.38,0.90*6A
27.706,þA
27.709,$GPVTG,14.5,T,,,1.83,N,3.39,K,A*73
27.746,$GPZDA,095208.00,20,10,2016,+00,00*4D
27.786,$GPRMC,095208.13,A,4811.89114,N,00300.93198,W,1.8,14.5,201016,,,A*75
27.826,$GPGST,095208.00,,,,,0.59,0.37,0.90*60
28.706,$GPGGA,095209.00,4811.891684,N,00300.931689,W,1,09,1.0,167.288,M,0.000,M,,*4A
28.709,$GPVTG,15.6,T,,,1.86,N,3.45,K,A*7F
28.746,$GPZDA,095209.00,20,10,2016,+00,00*4C
28.786,$GPRMC,095209.13,A,4811.89168,N,00300.93169,W,1.9,15.6,201016,,,A*72
28.826,$GPGST,095209.00,,,,,0.60,0.38,0.91*65
29.706,$GPGGA,095210.00,4811.892212,N,00300.931352,W,1,09,1.0,167.135,M,0.000,M,,*4C
29.709,$GPVTG,16.8,T,,,1.89,N,3.51,K,A*78
29.746,$GPZDA,095210.00,20,10,2016,+00,00*44
29.786,$GPRMC,095210.13,A,4811.89221,N,00300.93135,W,1.9,16.8,201016,,,A*70
29.826,$GPGST,095210.00,,,,,0.60,0.38,0.90*6C
30.706,$GPGGA,095211.00,4811.892751,N,00300.931045,W,1,09,1.0,167.094,M,0.000,M,,*40
30.709,$GPVTG,17.5,T,,,1.92,N,3.55,K,A*7A
30.746,$GPZDA,095211.00,20,10,2016,+00,00*45
30.786,$GPRMC,095211.13,A,4811.89275,N,00300.93105,W,1.9,17.5,201016,,,A*7F
30.826,$GPGST,095211.00,,,,,0.61,0.38,0.92*6E
31.706,$GPGGA,095212.00,4811.893230,N,00300.930726,W,1,09,1.0,167.156,M,0.000,M,,*4C
31.709,$GPVTG,18.4,T,,,1.91,N,3.54,K,A*76
31.746,$GPZDA,095212.00,20,10,2016,+00,00*46
31.786,$GPRMC,095212.13,A,4811.89323,N,00300.93073,W,1.9,18.4,201016,,,A*70
31.826,$GPGST,095212.00,,,,,0.60,0.38,0.91*6F
32.705,$GPGGA,095213.00,4811.893748,N,00300.930404,W,1,09,1.0,167.110,M,0.000,M,,*46
32.709,$GPVTG,19.2,T,,,1.93,N,3.58,K,A*7F
32.746,$GPZDA,095213.00,20,10,2016,+00,00*47
32.786,$GPRMC,095213.13,A,4811.89375,N,00300.93040,W,1.9,19.2,201016,,,A*75
32.826,$GPGST,095213.00,,,,,0.61,0.39,0.93*6C
33.705,þA
33.706,Žÿ$GPGGA,095214.00,4811.894285,N,00300.930080,W,1,09,1.0,167.067,M,0.000,M,,*4B
33.746,$GPVTG,19.8,T,,,1.95,N,3.61,K,A*79
33.786,$GPZDA,095214.00,20,10,2016,+00,00*40
33.826,$GPRMC,095214.13,A,4811.89429,N,00300.93008,W,2.0,19.8,201016,,,A*70
33.866,$GPGST,095214.00,,,,,0.62,0.39,0.94*6F
34.706,$GPGGA,095215.00,4811.894761,N,00300.929740,W,1,09,1.0,167.075,M,0.000,M,,*45
34.709,$GPVTG,20.3,T,,,1.95,N,3.60,K,A*79
34.747,$GPZDA,095215.00,20,10,2016,+00,00*41
34.787,$GPRMC,095215.13,A,4811.89476,N,00300.92974,W,1.9,20.3,201016,,,A*73
34.827,$GPGST,095215.00,,,,,0.61,0.38,0.92*6A
35.706,$GPGGA,095216.00,4811.895273,N,00300.929440,W,1,09,1.0,167.136,M,0.000,M,,*44
35.709,$GPVTG,20.6,T,,,1.95,N,3.61,K,A*7D
35.747,$GPZDA,095216.00,20,10,2016,+00,00*42
35.787,$GPRMC,095216.13,A,4811.89527,N,00300.92944,W,2.0,20.6,201016,,,A*79
35.827,$GPGST,095216.00,,,,,0.60,0.38,0.91*6B
36.706,$GPGGA,095217.00,4811.895788,N,00300.929116,W,1,10,0.9,167.077,M,0.000,M,,*46
36.709,$GPVTG,20.9,T,,,1.96,N,3.63,K,A*73
36.747,$GPZDA,095217.00,20,10,2016,+00,00*43
36.787,$GPRMC,095217.13,A,4811.89579,N,00300.92912,W,2.0,20.9,201016,,,A*7F
36.827,$GPGST,095217.00,,,,,0.55,0.35,0.83*62
37.706,$GPGGA,095218.00,4811.896297,N,00300.928815,W,1,10,0.9,167.060,M,0.000,M,,*4C
37.709,$GPVTG,21.0,T,,,1.96,N,3.63,K,A*7B
37.747,$GPZDA,095218.00,20,10,2016,+00,00*4C
37.787,$GPRMC,095218.13,A,4811.89630,N,00300.92881,W,2.0,21.0,201016,,,A*7D
37.827,$GPGST,095218.00,,,,,0.55,0.35,0.84*6A
38.706,$GPGGA,095219.00,4811.896807,N,00300.928550,W,1,10,0.9,167.199,M,0.000,M,,*45
38.709,$GPVTG,20.9,T,,,1.96,N,3.63,K,A*73
38.747,$GPZDA,095219.00,20,10,2016,+00,00*4D
38.787,$GPRMC,095219.13,A,4811.89681,N,00300.92855,W,2.0,20.9,201016,,,A*77
38.827,$GPGST,095219.00,,,,,0.56,0.35,0.84*68
39.706,$GPGGA,095220.00,4811.897318,N,00300.928236,W,1,09,1.0,167.061,M,0.000,M,,*4A
39.709,$GPVTG,20.8,T,,,1.96,N,3.64,K,A*75
39.746,$GPZDA,095220.00,20,10,2016,+00,00*47
39.787,$GPRMC,095220.13,A,4811.89732,N,00300.92824,W,2.0,20.8,201016,,,A*73
39.827,$GPGST,095220.00,,,,,0.60,0.38,0.90*6F
40.706,$GPGGA,095221.00,4811.897846,N,00300.927980,W,1,09,1.0,167.137,M,0.000,M,,*40
40.709,$GPVTG,20.5,T,,,1.96,N,3.64,K,A*78
40.747,$GPZDA,095221.00,20,10,2016,+00,00*46
40.788,$GPRMC,095221.13,A,4811.89785,N,00300.92798,W,2.0,20.5,201016,,,A*7B
40.828,$GPGST,095221.00,,,,,0.60,0.38,0.91*6F
41.706,$GPGGA,095222.00,4811.898351,N,00300.927735,W,1,10,0.9,167.170,M,0.000,M,,*42
41.709,$GPVTG,20.4,T,,,1.95,N,3.62,K,A*7C
41.746,$GPZDA,095222.00,20,10,2016,+00,00*45
41.787,$GPRMC,095222.13,A,4811.89835,N,00300.92774,W,2.0,20.4,201016,,,A*7F
41.827,$GPGST,095222.00,,,,,0.57,0.36,0.87*61
42.706,$GPGGA,095223.00,4811.898839,N,00300.927482,W,1,10,0.9,167.240,M,0.000,M,,*49
42.709,$GPVTG,20.1,T,,,1.94,N,3.60,K,A*7A
42.746,$GPZDA,095223.00,20,10,2016,+00,00*44
42.786,$GPRMC,095223.13,A,4811.89884,N,00300.92748,W,1.9,20.1,201016,,,A*74
42.827,$GPGST,095223.00,,,,,0.56,0.35,0.85*60
43.706,$GPGGA,095224.00,4811.899371,N,00300.927243,W,1,10,0.9,167.209,M,0.000,M,,*4E
43.709,$GPVTG,19.6,T,,,1.95,N,3.61,K,A*77
43.746,$GPZDA,095224.00,20,10,2016,+00,00*43
43.787,$GPRMC,095224.13,A,4811.89937,N,00300.92724,W,1.9,19.6,201016,,,A*7D
43.827,$GPGST,095224.00,,,,,0.56,0.35,0.85*67
44.706,$GPGGA,095225.00,4811.899878,N,00300.927014,W,1,10,0.9,167.218,M,0.000,M,,*4D
44.709,$GPVTG,19.1,T,,,1.94,N,3.60,K,A*70
44.746,$GPZDA,095225.00,20,10,2016,+00,00*42
44.787,$GPRMC,095225.13,A,4811.89988,N,00300.92701,W,1.9,19.1,201016,,,A*78
44.827,$GPGST,095225.00,,,,,0.56,0.35,0.85*66
45.706,$GPGGA,095226.00,4811.900408,N,00300.926822,W,1,10,0.9,167.232,M,0.000,M,,*40
45.709,$GPVTG,18.4,T,,,1.95,N,3.60,K,A*75
45.746,$GPZDA,095226.00,20,10,2016,+00,00*41
45.787,$GPRMC,095226.13,A,4811.90041,N,00300.92682,W,1.9,18.4,201016,,,A*71
45.827,$GPGST,095226.00,,,,,0.55,0.35,0.84*67
46.706,$GPGGA,095227.00,4811.900900,N,00300.926528,W,1,10,0.9,166.967,M,0.000,M,,*49
46.709,$GPVTG,18.9,T,,,1.93,N,3.58,K,A*75
46.746,$GPZDA,095227.00,20,10,2016,+00,00*40
46.787,$GPRMC,095227.13,A,4811.90090,N,00300.92653,W,1.9,18.9,201016,,,A*7D
46.827,$GPGST,095227.00,,,,,0.58,0.35,0.84*6B
47.706,$GPGGA,095228.00,4811.901390,N,00300.926340,W,1,10,0.9,166.965,M,0.000,M,,*4E
47.709,$GPVTG,18.1,T,,,1.93,N,3.57,K,A*72
47.746,$GPZDA,095228.00,20,10,2016,+00,00*4F
47.787,$GPRMC,095228.13,A,4811.90139,N,00300.92634,W,1.9,18.1,201016,,,A*79
47.827,$GPGST,095228.00,,,,,0.57,0.35,0.82*6D
48.706,$GPGGA,095229.00,4811.901921,N,00300.926182,W,1,10,0.9,167.034,M,0.000,M,,*4F
48.709,$GPVTG,17.1,T,,,1.93,N,3.57,K,A*7D
48.746,$GPZDA,095229.00,20,10,2016,+00,00*4E
48.787,$GPRMC,095229.13,A,4811.90192,N,00300.92618,W,1.9,17.1,201016,,,A*78
48.827,$GPGST,095229.00,,,,,0.56,0.34,0.81*6F
49.706,$GPGGA,095230.00,4811.902440,N,00300.926038,W,1,10,0.9,167.070,M,0.000,M,,*4E
49.710,$GPVTG,16.4,T,,,1.92,N,3.56,K,A*79
49.746,$GPZDA,095230.00,20,10,2016,+00,00*46
49.786,$GPRMC,095230.13,A,4811.90244,N,00300.92604,W,1.9,16.4,201016,,,A*71
49.826,$GPGST,095230.00,,,,,0.56,0.34,0.81*67
50.706,$GPGGA,095231.00,4811.902945,N,00300.925883,W,1,10,0.9,167.127,M,0.000,M,,*4F
50.710,$GPVTG,15.6,T,,,1.91,N,3.53,K,A*7E
50.746,$GPZDA,095231.00,20,10,2016,+00,00*47
50.786,$GPRMC,095231.13,A,4811.90294,N,00300.92588,W,1.9,15.6,201016,,,A*7B
50.826,$GPGST,095231.00,,,,,0.57,0.34,0.81*67
51.707,$GPGGA,095232.00,4811.903475,N,00300.925717,W,1,10,0.9,167.147,M,0.000,M,,*47
51.710,$GPVTG,14.9,T,,,1.91,N,3.54,K,A*77
51.747,$GPZDA,095232.00,20,10,2016,+00,00*44
51.787,$GPRMC,095232.13,A,4811.90348,N,00300.92572,W,1.9,14.9,201016,,,A*73
51.827,$GPGST,095232.00,,,,,0.55,0.33,0.79*66
52.707,$GPGGA,095233.00,4811.903982,N,00300.925557,W,1,10,0.9,167.178,M,0.000,M,,*49
52.710,$GPVTG,14.5,T,,,1.91,N,3.54,K,A*7B
52.747,$GPZDA,095233.00,20,10,2016,+00,00*45
52.788,$GPRMC,095233.13,A,4811.90398,N,00300.92556,W,1.9,14.5,201016,,,A*75
52.828,$GPGST,095233.00,,,,,0.56,0.34,0.81*64
53.707,$GPGGA,095234.00,4811.904511,N,00300.925366,W,1,10,0.9,167.170,M,0.000,M,,*43
53.710,$GPVTG,14.2,T,,,1.91,N,3.54,K,A*7C
53.747,$GPZDA,095234.00,20,10,2016,+00,00*42
53.787,$GPRMC,095234.13,A,4811.90451,N,00300.92537,W,1.9,14.2,201016,,,A*70
53.828,$GPGST,095234.00,,,,,0.56,0.34,0.80*62
54.707,$GPGGA,095235.00,4811.905008,N,00300.925195,W,1,10,0.9,167.193,M,0.000,M,,*4D
54.710,$GPVTG,14.1,T,,,1.91,N,3.53,K,A*78
54.747,$GPZDA,095235.00,20,10,2016,+00,00*43
54.787,$GPRMC,095235.13,A,4811.90501,N,00300.92519,W,1.9,14.1,201016,,,A*7A
54.827,$GPGST,095235.00,,,,,0.56,0.34,0.81*62
55.707,$GPGGA,095236.00,4811.905506,N,00300.924993,W,1,10,0.9,167.149,M,0.000,M,,*4D
55.710,$GPVTG,14.2,T,,,1.90,N,3.51,K,A*78
55.747,$GPZDA,095236.00,20,10,2016,+00,00*40
55.787,$GPRMC,095236.13,A,4811.90551,N,00300.92499,W,1.9,14.2,201016,,,A*76
55.827,$GPGST,095236.00,,,,,0.56,0.34,0.81*61
56.707,$GPGGA,095237.00,4811.906000,N,00300.924778,W,1,10,0.9,167.197,M,0.000,M,,*44
56.710,$GPVTG,14.5,T,,,1.89,N,3.50,K,A*76
56.747,$GPZDA,095237.00,20,10,2016,+00,00*41
56.787,$GPRMC,095237.13,A,4811.90600,N,00300.92478,W,1.9,14.5,201016,,,A*78
56.827,$GPGST,095237.00,,,,,0.56,0.34,0.81*60
57.707,$GPGGA,095238.00,4811.906517,N,00300.924585,W,1,10,0.9,167.238,M,0.000,M,,*4E
57.710,$GPVTG,14.5,T,,,1.89,N,3.49,K,A*7E
57.747,$GPZDA,095238.00,20,10,2016,+00,00*4E
57.787,$GPRMC,095238.13,A,4811.90652,N,00300.92458,W,1.9,14.5,201016,,,A*72
57.827,$GPGST,095238.00,,,,,0.56,0.34,0.81*6F
58.707,$GPGGA,095239.00,4811.906996,N,00300.924342,W,1,09,1.0,167.369,M,0.000,M,,*42
58.710,$GPVTG,15.3,T,,,1.88,N,3.48,K,A*79
58.747,$GPZDA,095239.00,20,10,2016,+00,00*4F
58.787,$GPRMC,095239.13,A,4811.90700,N,00300.92434,W,1.9,15.3,201016,,,A*78
58.827,$GPGST,095239.00,,,,,0.61,0.38,0.92*64
59.706,$GPGGA,095240.00,4811.907476,N,00300.924082,W,1,10,0.9,167.440,M,0.000,M,,*4D
59.709,$GPVTG,16.1,T,,,1.88,N,3.47,K,A*77
59.747,$GPZDA,095240.00,20,10,2016,+00,00*41
59.787,$GPRMC,095240.13,A,4811.90748,N,00300.92408,W,1.9,16.1,201016,,,A*74
59.827,$GPGST,095240.00,,,,,0.55,0.35,0.83*60
60.706,$GPGGA,095241.00,4811.907971,N,00300.923725,W,1,10,0.9,167.409,M,0.000,M,,*46
60.709,$GPVTG,17.3,T,,,1.88,N,3.48,K,A*7B
60.747,$GPZDA,095241.00,20,10,2016,+00,00*40
60.787,$GPRMC,095241.13,A,4811.90797,N,00300.92372,W,1.9,17.3,201016,,,A*7E
60.827,$GPGST,095241.00,,,,,0.56,0.35,0.84*65
61.706,$GPGGA,095242.00,4811.908452,N,00300.923398,W,1,10,0.9,167.415,M,0.000,M,,*49
61.709,$GPVTG,18.6,T,,,1.88,N,3.49,K,A*70
61.747,$GPZDA,095242.00,20,10,2016,+00,00*43
61.787,$GPRMC,095242.13,A,4811.90845,N,00300.92340,W,1.9,18.6,201016,,,A*76
61.827,$GPGST,095242.00,,,,,0.56,0.35,0.84*66
62.706,$GPGGA,095243.00,4811.908945,N,00300.923040,W,1,09,1.0,167.435,M,0.000,M,,*47
62.709,$GPVTG,19.7,T,,,1.89,N,3.50,K,A*79
62.747,$GPZDA,095243.00,20,10,2016,+00,00*42
62.787,$GPRMC,095243.13,A,4811.90895,N,00300.92304,W,1.9,19.7,201016,,,A*7A
62.827,$GPGST,095243.00,,,,,0.62,0.39,0.93*6A
63.706,þA
63.709,$GPVTG,21.0,T,,,1.90,N,3.52,K,A*7F
63.747,$GPZDA,095244.00,20,10,2016,+00,00*45
63.787,$GPRMC,095244.13,A,4811.90942,N,00300.92264,W,1.9,21.0,201016,,,A*7D
63.827,$GPGST,095244.00,,,,,0.62,0.39,0.93*6D
64.706,$GPGGA,095245.00,4811.909885,N,00300.922221,W,1,09,1.0,167.388,M,0.000,M,,*48
64.709,$GPVTG,22.5,T,,,1.90,N,3.52,K,A*79
64.747,$GPZDA,095245.00,20,10,2016,+00,00*44
64.787,$GPRMC,095245.13,A,4811.90989,N,00300.92222,W,1.9,22.5,201016,,,A*7F
64.827,$GPGST,095245.00,,,,,0.61,0.39,0.93*6F
65.706,$GPGGA,095246.00,4811.910353,N,00300.921795,W,1,10,0.9,167.352,M,0.000,M,,*4D
65.709,$GPVTG,23.7,T,,,1.91,N,3.54,K,A*7D
65.747,$GPZDA,095246.00,20,10,2016,+00,00*47
65.787,$GPRMC,095246.13,A,4811.91035,N,00300.92179,W,1.9,23.7,201016,,,A*7D
65.827,$GPGST,095246.00,,,,,0.57,0.36,0.86*62
66.706,$GPGGA,095247.00,4811.910804,N,00300.921374,W,1,09,1.0,167.442,M,0.000,M,,*48
66.710,$GPVTG,24.9,T,,,1.91,N,3.54,K,A*74
66.747,$GPZDA,095247.00,20,10,2016,+00,00*46
66.787,$GPRMC,095247.13,A,4811.91080,N,00300.92137,W,1.9,24.9,201016,,,A*71
66.827,$GPGST,095247.00,,,,,0.62,0.39,0.93*6E
67.706,$GPGGA,095248.00,4811.911271,N,00300.920923,W,1,10,0.9,167.465,M,0.000,M,,*42
67.710,$GPVTG,25.9,T,,,1.92,N,3.55,K,A*77
67.747,$GPZDA,095248.00,20,10,2016,+00,00*49
67.787,$GPRMC,095248.13,A,4811.91127,N,00300.92092,W,1.9,25.9,201016,,,A*7D
67.827,$GPGST,095248.00,,,,,0.57,0.36,0.85*6F
68.707,$GPGGA,095249.00,4811.911733,N,00300.920430,W,1,10,0.9,167.436,M,0.000,M,,*49
68.710,$GPVTG,27.3,T,,,1.93,N,3.58,K,A*73
68.748,$GPZDA,095249.00,20,10,2016,+00,00*48
68.788,$GPRMC,095249.13,A,4811.91173,N,00300.92043,W,1.9,27.3,201016,,,A*79
68.828,$GPGST,095249.00,,,,,0.57,0.36,0.86*6D
69.707,$GPGGA,095250.00,4811.912173,N,00300.919956,W,1,10,0.9,167.458,M,0.000,M,,*4F
69.710,$GPVTG,28.5,T,,,1.93,N,3.58,K,A*7A
69.747,$GPZDA,095250.00,20,10,2016,+00,00*40
69.788,$GPRMC,095250.13,A,4811.91217,N,00300.91996,W,1.9,28.5,201016,,,A*7B
69.828,$GPGST,095250.00,,,,,0.56,0.35,0.85*64
70.707,$GPGGA,095251.00,4811.912646,N,00300.919472,W,1,10,0.9,167.463,M,0.000,M,,*4C
70.710,$GPVTG,29.6,T,,,1.95,N,3.61,K,A*74
70.747,$GPZDA,095251.00,20,10,2016,+00,00*41
70.787,$GPRMC,095251.13,A,4811.91265,N,00300.91947,W,1.9,29.6,201016,,,A*71
70.828,$GPGST,095251.00,,,,,0.57,0.36,0.86*64
71.707,$GPGGA,095252.00,4811.913094,N,00300.918963,W,1,10,0.9,167.435,M,0.000,M,,*48
71.710,$GPVTG,30.7,T,,,1.96,N,3.63,K,A*7C
71.747,$GPZDA,095252.00,20,10,2016,+00,00*42
71.787,$GPRMC,095252.13,A,4811.91309,N,00300.91896,W,2.0,30.7,201016,,,A*77
71.827,$GPGST,095252.00,,,,,0.57,0.36,0.86*67
72.707,$GPGGA,095253.00,4811.913549,N,00300.918474,W,1,10,0.9,167.490,M,0.000,M,,*48
72.710,$GPVTG,31.4,T,,,1.97,N,3.65,K,A*79
72.747,$GPZDA,095253.00,20,10,2016,+00,00*43
72.787,$GPRMC,095253.13,A,4811.91355,N,00300.91847,W,2.0,31.4,201016,,,A*71
72.828,$GPGST,095253.00,,,,,0.55,0.33,0.79*61
73.707,$GPGGA,095254.00,4811.914019,N,00300.918036,W,1,10,0.9,167.606,M,0.000,M,,*47
73.710,$GPVTG,31.6,T,,,1.97,N,3.65,K,A*7B
73.747,$GPZDA,095254.00,20,10,2016,+00,00*44
73.787,$GPRMC,095254.13,A,4811.91402,N,00300.91804,W,2.0,31.6,201016,,,A*76
73.828,$GPGST,095254.00,,,,,0.57,0.34,0.82*67
74.707,$GPGGA,095255.00,4811.914425,N,00300.917514,W,1,09,1.0,167.527,M,0.000,M,,*47
74.710,$GPVTG,32.1,T,,,1.97,N,3.65,K,A*7F
74.747,$GPZDA,095255.00,20,10,2016,+00,00*45
74.787,$GPRMC,095255.13,A,4811.91443,N,00300.91751,W,2.0,32.1,201016,,,A*79
74.828,$GPGST,095255.00,,,,,0.62,0.39,0.93*6D
75.707,$GPGGA,095256.00,4811.914906,N,00300.917051,W,1,09,1.0,167.539,M,0.000,M,,*43
75.710,$GPVTG,32.4,T,,,1.98,N,3.66,K,A*76
75.747,$GPZDA,095256.00,20,10,2016,+00,00*46
75.788,$GPRMC,095256.13,A,4811.91491,N,00300.91705,W,2.0,32.4,201016,,,A*71
75.828,$GPGST,095256.00,,,,,0.62,0.39,0.93*6E
76.707,$GPGGA,095257.00,4811.915369,N,00300.916594,W,1,09,1.0,167.485,M,0.000,M,,*4B
76.710,$GPVTG,32.5,T,,,1.99,N,3.69,K,A*79
76.747,$GPZDA,095257.00,20,10,2016,+00,00*47
76.788,$GPRMC,095257.13,A,4811.91537,N,00300.91659,W,2.0,32.5,201016,,,A*74
76.828,$GPGST,095257.00,,,,,0.62,0.39,0.93*6F
77.707,$GPGGA,095258.00,4811.915864,N,00300.916131,W,1,09,1.0,167.468,M,0.000,M,,*4A
77.710,$GPVTG,32.4,T,,,2.00,N,3.70,K,A*73
77.747,$GPZDA,095258.00,20,10,2016,+00,00*48
77.787,$GPRMC,095258.13,A,4811.91586,N,00300.91613,W,2.0,32.4,201016,,,A*7E
77.827,$GPGST,095258.00,,,,,0.61,0.38,0.92*63
78.707,$GPGGA,095259.00,4811.916338,N,00300.915685,W,1,09,1.0,167.421,M,0.000,M,,*4C
78.710,$GPVTG,32.3,T,,,2.00,N,3.71,K,A*75
78.747,$GPZDA,095259.00,20,10,2016,+00,00*49
78.787,$GPRMC,095259.13,A,4811.91634,N,00300.91568,W,2.0,32.3,201016,,,A*7D
78.827,$GPGST,095259.00,,,,,0.61,0.38,0.92*62
79.707,$GPGGA,095300.00,4811.916842,N,00300.915264,W,1,10,0.9,167.410,M,0.000,M,,*4E
79.710,$GPVTG,31.9,T,,,2.01,N,3.73,K,A*7F
79.747,$GPZDA,095300.00,20,10,2016,+00,00*44
79.787,$GPRMC,095300.13,A,4811.91684,N,00300.91526,W,2.0,31.9,201016,,,A*78
79.827,$GPGST,095300.00,,,,,0.56,0.35,0.85*60
80.707,$GPGGA,095301.00,4811.917328,N,00300.914885,W,1,10,0.9,167.423,M,0.000,M,,*4D
80.710,$GPVTG,31.4,T,,,2.01,N,3.73,K,A*72
80.747,$GPZDA,095301.00,20,10,2016,+00,00*45
80.787,$GPRMC,095301.13,A,4811.91733,N,00300.91489,W,2.0,31.4,201016,,,A*7D
80.827,$GPGST,095301.00,,,,,0.56,0.35,0.85*61
81.707,$GPGGA,095302.00,4811.917846,N,00300.914506,W,1,09,1.0,167.484,M,0.000,M,,*46
81.710,$GPVTG,30.7,T,,,2.02,N,3.73,K,A*73
81.747,$GPZDA,095302.00,20,10,2016,+00,00*46
81.787,$GPRMC,095302.13,A,4811.91785,N,00300.91451,W,2.0,30.7,201016,,,A*74
81.827,$GPGST,095302.00,,,,,0.62,0.39,0.94*69
82.707,$GPGGA,095303.00,4811.918372,N,00300.914166,W,1,08,1.0,167.427,M,0.000,M,,*4E
82.710,$GPVTG,30.3,T,,,2.01,N,3.72,K,A*75
82.747,$GPZDA,095303.00,20,10,2016,+00,00*47
82.787,$GPRMC,095303.13,A,4811.91837,N,00300.91417,W,2.0,30.3,201016,,,A*75
82.827,$GPGST,095303.00,,,,,0.69,0.44,1.09*6C
83.707,$GPGGA,095304.00,4811.918874,N,00300.913856,W,1,09,1.0,167.402,M,0.000,M,,*4F
83.710,$GPVTG,29.6,T,,,2.01,N,3.71,K,A*7B
83.747,$GPZDA,095304.00,20,10,2016,+00,00*40
83.787,$GPRMC,095304.13,A,4811.91887,N,00300.91386,W,2.0,29.6,201016,,,A*7B
83.827,$GPGST,095304.00,,,,,0.62,0.39,0.97*6C
84.707,$GPGGA,095305.00,4811.919380,N,00300.913593,W,1,09,0.9,167.446,M,0.000,M,,*43
84.711,$GPVTG,28.4,T,,,2.00,N,3.71,K,A*79
84.747,$GPZDA,095305.00,20,10,2016,+00,00*41
84.787,$GPRMC,095305.13,A,4811.91938,N,00300.91359,W,2.0,28.4,201016,,,A*7E
84.827,$GPGST,095305.00,,,,,0.62,0.39,0.97*6D
85.707,$GPGGA,095306.00,4811.919890,N,00300.913355,W,1,09,0.9,167.491,M,0.000,M,,*4C
85.710,$GPVTG,27.5,T,,,2.00,N,3.70,K,A*76
85.747,$GPZDA,095306.00,20,10,2016,+00,00*42
85.787,$GPRMC,095306.13,A,4811.91989,N,00300.91336,W,2.0,27.5,201016,,,A*70
85.827,$GPGST,095306.00,,,,,0.63,0.39,0.98*60
86.707,$GPGGA,095307.00,4811.920400,N,00300.913126,W,1,10,0.9,167.446,M,0.000,M,,*46
86.711,$GPVTG,26.3,T,,,1.99,N,3.68,K,A*7B
86.747,$GPZDA,095307.00,20,10,2016,+00,00*43
86.787,$GPRMC,095307.13,A,4811.92040,N,00300.91313,W,2.0,26.3,201016,,,A*7E
86.827,$GPGST,095307.00,,,,,0.57,0.36,0.90*61
87.707,þA
87.710,$GPVTG,25.5,T,,,1.97,N,3.66,K,A*7E
87.748,$GPZDA,095308.00,20,10,2016,+00,00*4C
87.788,$GPRMC,095308.13,A,4811.92094,N,00300.91293,W,2.0,25.5,201016,,,A*74
87.828,$GPGST,095308.00,,,,,0.63,0.40,0.99*61
88.707,$GPGGA,095309.00,4811.921455,N,00300.912749,W,1,10,0.9,167.346,M,0.000,M,,*40
88.710,$GPVTG,23.8,T,,,1.97,N,3.65,K,A*76
88.748,$GPZDA,095309.00,20,10,2016,+00,00*4D
88.788,$GPRMC,095309.13,A,4811.92145,N,00300.91275,W,2.0,23.8,201016,,,A*7B
88.828,$GPGST,095309.00,,,,,0.58,0.37,0.91*60
89.707,$GPGGA,095310.00,4811.921986,N,00300.912605,W,1,10,0.9,167.383,M,0.000,M,,*4B
89.710,$GPVTG,21.9,T,,,1.96,N,3.63,K,A*72
89.748,$GPZDA,095310.00,20,10,2016,+00,00*45
89.788,$GPRMC,095310.13,A,4811.92199,N,00300.91260,W,2.0,21.9,201016,,,A*75
89.828,$GPGST,095310.00,,,,,0.58,0.37,0.91*68
90.707,$GPGGA,095311.00,4811.922498,N,00300.912454,W,1,10,0.9,167.403,M,0.000,M,,*42
90.710,$GPVTG,20.2,T,,,1.94,N,3.59,K,A*73
90.747,$GPZDA,095311.00,20,10,2016,+00,00*44
90.788,$GPRMC,095311.13,A,4811.92250,N,00300.91245,W,1.9,20.2,201016,,,A*75
90.828,$GPGST,095311.00,,,,,0.58,0.36,0.90*69
91.707,$GPGGA,095312.00,4811.923014,N,00300.912323,W,1,08,1.0,167.436,M,0.000,M,,*40
91.710,$GPVTG,19.1,T,,,1.93,N,3.57,K,A*73
91.748,$GPZDA,095312.00,20,10,2016,+00,00*47
91.788,$GPRMC,095312.13,A,4811.92301,N,00300.91232,W,1.9,19.1,201016,,,A*7A
91.828,$GPGST,095312.00,,,,,0.71,0.45,1.11*6D
92.707,$GPGGA,095313.00,4811.923560,N,00300.912217,W,1,10,0.9,167.462,M,0.000,M,,*41
92.710,$GPVTG,17.8,T,,,1.93,N,3.57,K,A*74
92.748,$GPZDA,095313.00,20,10,2016,+00,00*46
92.788,$GPRMC,095313.13,A,4811.92356,N,00300.91222,W,1.9,17.8,201016,,,A*7F
92.828,$GPGST,095313.00,,,,,0.58,0.36,0.90*6B
93.707,þA
93.707,ãÿ$GPGGA,095314.00,4811.924044,N,00300.912079,W,1,09,1.0,167.421,M,0.000,M,,*4F
93.748,$GPVTG,17.0,T,,,1.92,N,3.56,K,A*7C
93.788,$GPZDA,095314.00,20,10,2016,+00,00*41
93.828,$GPRMC,095314.13,A,4811.92404,N,00300.91208,W,1.9,17.0,201016,,,A*78
93.868,$GPGST,095314.00,,,,,0.63,0.40,0.99*6C
94.707,$GPGGA,095315.00,4811.924548,N,00300.911944,W,1,09,1.0,167.421,M,0.000,M,,*43
94.710,$GPVTG,16.0,T,,,1.91,N,3.53,K,A*7B
94.747,$GPZDA,095315.00,20,10,2016,+00,00*40
94.788,$GPRMC,095315.13,A,4811.92455,N,00300.91194,W,1.9,16.0,201016,,,A*7A
94.828,$GPGST,095315.00,,,,,0.63,0.40,0.98*6C
95.707,$GPGGA,095316.00,4811.925014,N,00300.911798,W,1,09,1.0,167.449,M,0.000,M,,*4C
95.710,$GPVTG,15.3,T,,,1.88,N,3.49,K,A*78
95.747,$GPZDA,095316.00,20,10,2016,+00,00*43
95.788,$GPRMC,095316.13,A,4811.92501,N,00300.91180,W,1.9,15.3,201016,,,A*7C
95.828,$GPGST,095316.00,,,,,0.64,0.40,0.99*69
96.707,$GPGGA,095317.00,4811.925510,N,00300.911640,W,1,09,1.0,167.445,M,0.000,M,,*44
96.710,$GPVTG,14.9,T,,,1.86,N,3.45,K,A*71
96.748,$GPZDA,095317.00,20,10,2016,+00,00*42
96.789,$GPRMC,095317.13,A,4811.92551,N,00300.91164,W,1.9,14.9,201016,,,A*79
96.829,$GPGST,095317.00,,,,,0.64,0.41,1.00*68
97.707,$GPGGA,095318.00,4811.925909,N,00300.911444,W,1,08,1.0,167.400,M,0.000,M,,*49
97.710,$GPVTG,15.1,T,,,1.83,N,3.39,K,A*76
97.748,$GPZDA,095318.00,20,10,2016,+00,00*4D
97.788,$GPRMC,095318.13,A,4811.92591,N,00300.91144,W,1.8,15.1,201016,,,A*70
97.828,$GPGST,095318.00,,,,,0.72,0.45,1.11*64
98.707,$GPGGA,095319.00,4811.926341,N,00300.911212,W,1,09,1.0,167.429,M,0.000,M,,*42
98.710,$GPVTG,15.6,T,,,1.81,N,3.35,K,A*7F
98.747,$GPZDA,095319.00,20,10,2016,+00,00*4C
98.787,$GPRMC,095319.13,A,4811.92634,N,00300.91121,W,1.8,15.6,201016,,,A*79
98.828,$GPGST,095319.00,,,,,0.65,0.41,1.01*66
99.707,$GPGGA,095320.00,4811.926748,N,00300.910941,W,1,09,1.0,167.422,M,0.000,M,,*42
99.710,$GPVTG,16.8,T,,,1.77,N,3.28,K,A*77
99.747,$GPZDA,095320.00,20,10,2016,+00,00*46
99.787,$GPRMC,095320.13,A,4811.92675,N,00300.91094,W,1.8,16.8,201016,,,A*74
99.827,$GPGST,095320.00,,,,,0.64,0.41,1.00*6C
100.707,$GPGGA,095321.00,4811.927132,N,00300.910645,W,1,09,1.0,167.465,M,0.000,M,,*41
100.710,$GPVTG,18.2,T,,,1.73,N,3.21,K,A*7E
100.747,$GPZDA,095321.00,20,10,2016,+00,00*47
100.787,$GPRMC,095321.13,A,4811.92713,N,00300.91064,W,1.7,18.2,201016,,,A*70
100.828,$GPGST,095321.00,,,,,0.64,0.40,1.00*6C
101.707,$GPGGA,095322.00,4811.927493,N,00300.910296,W,1,08,1.1,167.521,M,0.000,M,,*47
101.710,$GPVTG,20.0,T,,,1.70,N,3.15,K,A*73
101.747,$GPZDA,095322.00,20,10,2016,+00,00*44
101.787,$GPRMC,095322.13,A,4811.92749,N,00300.91030,W,1.7,20.0,201016,,,A*74
101.827,$GPGST,095322.00,,,,,0.76,0.46,1.21*69
102.707,$GPGGA,095323.00,4811.927832,N,00300.909884,W,1,08,1.1,167.491,M,0.000,M,,*4A
102.711,$GPVTG,22.6,T,,,1.67,N,3.09,K,A*7C
102.747,$GPZDA,095323.00,20,10,2016,+00,00*45
102.787,$GPRMC,095323.13,A,4811.92783,N,00300.90988,W,1.7,22.6,201016,,,A*7C
102.827,$GPGST,095323.00,,,,,0.76,0.46,1.22*6B
103.707,$GPGGA,095324.00,4811.928112,N,00300.909390,W,1,08,1.1,167.689,M,0.000,M,,*4C
103.711,$GPVTG,24.5,T,,,1.66,N,3.07,K,A*76
103.747,$GPZDA,095324.00,20,10,2016,+00,00*42
103.787,$GPRMC,095324.13,A,4811.92811,N,00300.90939,W,1.7,24.5,201016,,,A*70
103.828,$GPGST,095324.00,,,,,0.80,0.48,1.22*6B
104.708,$GPGGA,095325.00,4811.928404,N,00300.908885,W,1,09,1.0,167.647,M,0.000,M,,*43
104.711,$GPVTG,27.6,T,,,1.63,N,3.02,K,A*76
104.748,$GPZDA,095325.00,20,10,2016,+00,00*43
104.788,$GPRMC,095325.13,A,4811.92840,N,00300.90888,W,1.6,27.6,201016,,,A*7F
104.828,$GPGST,095325.00,,,,,0.69,0.41,1.05*61
105.708,$GPGGA,095326.00,4811.928672,N,00300.908345,W,1,08,1.0,167.494,M,0.000,M,,*49
105.711,$GPVTG,31.4,T,,,1.60,N,2.97,K,A*7D
105.748,$GPZDA,095326.00,20,10,2016,+00,00*40
105.788,$GPRMC,095326.13,A,4811.92867,N,00300.90834,W,1.6,31.4,201016,,,A*7B
105.828,$GPGST,095326.00,,,,,0.76,0.46,1.21*6D
106.708,$GPGGA,095327.00,4811.928903,N,00300.907765,W,1,07,1.2,167.405,M,0.000,M,,*4D
106.711,$GPVTG,35.2,T,,,1.58,N,2.93,K,A*70
106.748,$GPZDA,095327.00,20,10,2016,+00,00*41
106.788,$GPRMC,095327.13,A,4811.92890,N,00300.90777,W,1.6,35.2,201016,,,A*78
106.828,$GPGST,095327.00,,,,,0.87,0.53,1.39*6F
107.708,$GPGGA,095328.00,4811.929128,N,00300.907143,W,1,07,1.2,167.451,M,0.000,M,,*41
107.711,$GPVTG,39.5,T,,,1.57,N,2.92,K,A*75
107.748,$GPZDA,095328.00,20,10,2016,+00,00*4E
107.788,$GPRMC,095328.13,A,4811.92913,N,00300.90714,W,1.6,39.5,201016,,,A*73
107.828,$GPGST,095328.00,,,,,0.86,0.52,1.37*6E
108.708,$GPGGA,095329.00,4811.929333,N,00300.906510,W,1,08,1.1,167.463,M,0.000,M,,*46
108.711,$GPVTG,43.1,T,,,1.57,N,2.91,K,A*7F
108.748,$GPZDA,095329.00,20,10,2016,+00,00*4F
108.788,$GPRMC,095329.13,A,4811.92933,N,00300.90651,W,1.6,43.1,201016,,,A*79
108.828,$GPGST,095329.00,,,,,0.75,0.45,1.20*63
109.708,$GPGGA,095330.00,4811.929500,N,00300.905836,W,1,08,1.1,167.316,M,0.000,M,,*47
109.711,$GPVTG,47.2,T,,,1.57,N,2.91,K,A*78
109.748,$GPZDA,095330.00,20,10,2016,+00,00*47
109.788,$GPRMC,095330.13,A,4811.92950,N,00300.90584,W,1.6,47.2,201016,,,A*78
109.828,$GPGST,095330.00,,,,,0.76,0.46,1.20*6B
110.708,$GPGGA,095331.00,4811.929690,N,00300.905193,W,1,08,1.1,167.358,M,0.000,M,,*40
110.711,$GPVTG,50.5,T,,,1.58,N,2.93,K,A*74
110.748,$GPZDA,095331.00,20,10,2016,+00,00*46
110.788,$GPRMC,095331.13,A,4811.92969,N,00300.90519,W,1.6,50.5,201016,,,A*76
110.828,$GPGST,095331.00,,,,,0.78,0.47,1.23*66
111.708,$GPGGA,095332.00,4811.929792,N,00300.904468,W,1,09,1.0,167.389,M,0.000,M,,*4C
111.711,$GPVTG,53.9,T,,,1.58,N,2.93,K,A*7B
111.748,$GPZDA,095332.00,20,10,2016,+00,00*45
111.788,$GPRMC,095332.13,A,4811.92979,N,00300.90447,W,1.6,53.9,201016,,,A*71
111.828,$GPGST,095332.00,,,,,0.68,0.41,1.09*6A
112.707,$GPGGA,095333.00,4811.929950,N,00300.903811,W,1,09,1.0,167.484,M,0.000,M,,*42
112.710,$GPVTG,57.1,T,,,1.59,N,2.94,K,A*71
112.748,$GPZDA,095333.00,20,10,2016,+00,00*44
112.788,$GPRMC,095333.13,A,4811.92995,N,00300.90381,W,1.6,57.1,201016,,,A*73
112.828,$GPGST,095333.00,,,,,0.67,0.41,1.07*6A
113.707,$GPGGA,095334.00,4811.930024,N,00300.903070,W,1,09,1.0,167.483,M,0.000,M,,*4F
113.710,$GPVTG,60.7,T,,,1.60,N,2.97,K,A*7A
113.748,$GPZDA,095334.00,20,10,2016,+00,00*43
113.788,$GPRMC,095334.13,A,4811.93002,N,00300.90307,W,1.6,60.7,201016,,,A*7E
113.828,$GPGST,095334.00,,,,,0.68,0.41,1.08*6D
114.707,$GPGGA,095335.00,4811.930110,N,00300.902340,W,1,09,1.0,167.474,M,0.000,M,,*41
114.710,$GPVTG,63.9,T,,,1.61,N,2.99,K,A*78
114.748,$GPZDA,095335.00,20,10,2016,+00,00*42
114.788,$GPRMC,095335.13,A,4811.93011,N,00300.90234,W,1.6,63.9,201016,,,A*71
114.828,$GPGST,095335.00,,,,,0.69,0.41,1.09*6C
